Country,Station_id,Station_name,Station_lat,Station_lon,Station_source,Outlet_lat,Outlet_lon,Outlet_source,Mapped_lat,Mapped_lon,Manual_lat,Manual_lon,Manual_outlet_location,Basin_area_km2,Ref_area_1_src,Ref_area_1_km2,Ref_area_2_src,Ref_area_2_km2,Ref_shape,Ref_shape_source,Ref_shape_area_km2,Ref_and_new_shape_fractional_overlap,Manual_delineation_notes,Delineation_confidence,Delineation_notes,iv_flow_obs_availability_start,iv_flow_obs_availability_end,flow_obs_missing_hourly,dv_flow_obs_availability_start,dv_flow_obs_availability_end,flow_obs_missing_daily,dv_flow_obs_timezone,is_headwater,sub_basins,subset_category
CAN,01AD003,ST. FRANCIS RIVER AT OUTLET OF GLASIER LAKE,47.20661,-68.95694,WSC 20222 data set,47.20601615,-68.95672679,WSC 20222 data set,47.20589468,-68.95660532,-999.0,-999.0,,1343.736223,HYDAT gross drainage area,1350.0,HYDAT effective drainage area,,yes,WSC 2022 data set,1348.3,0.985512695,,high,CAN_01AD003 shares part of its upstream area with gauge CAN_01AD002.,2010-12-31 20:00:00,2023-01-02 23:00:00,13,1951-10-01 00:00:00,2020-12-31 00:00:00,0,AST,0,31,macro-scale
CAN,01AF007,GRANDE RIVIERE AT VIOLETTE BRIDGE,47.24697,-67.92128,WSC 20222 data set,47.24690817,-67.92127056,WSC 20222 data set,47.24666667,-67.92127056,-999.0,-999.0,,323.8344727,HYDAT gross drainage area,339.0,HYDAT effective drainage area,,yes,WSC 2022 data set,325.196,0.977786892,,high,,2011-01-01 01:00:00,2023-01-02 23:00:00,4,1977-01-01 00:00:00,2020-12-31 00:00:00,0,AST,0,9,meso-scale
CAN,01AF009,IROQUOIS RIVER AT MOULIN MORNEAULT,47.45783,-68.35683,WSC 20222 data set,47.45762152,-68.35671032,WSC 20222 data set,47.45762152,-68.35666667,-999.0,-999.0,,183.6754339,HYDAT gross drainage area,182.0,HYDAT effective drainage area,,yes,WSC 2022 data set,183.43,0.986568837,,high,,2011-01-01 01:00:00,2022-12-10 03:00:00,0,1991-01-01 00:00:00,2020-12-31 00:00:00,0,AST,0,3,meso-scale
CAN,01AJ003,MEDUXNEKEAG RIVER NEAR BELLEVILLE,46.21622,-67.72794,WSC 20222 data set,46.21635228,-67.72783717,WSC 20222 data set,46.21626139,-67.72792806,-999.0,-999.0,,1213.320279,HYDAT gross drainage area,1210.0,HYDAT effective drainage area,,yes,WSC 2022 data set,1210.06,0.97858705,,high,,2011-01-01 01:00:00,2022-12-10 03:00:00,155,1967-12-01 00:00:00,2020-12-31 00:00:00,14,AST,0,25,macro-scale
CAN,01AJ004,BIG PRESQUE ISLE STREAM AT TRACEY MILLS,46.43836,-67.73844,WSC 20222 data set,46.43850868,-67.73839154,WSC 20222 data set,46.43833333,-67.73839154,-999.0,-999.0,,490.5678534,HYDAT gross drainage area,484.0,HYDAT effective drainage area,,yes,WSC 2022 data set,487.32,0.973647992,,high,,2011-01-01 01:00:00,2023-01-02 23:00:00,261,1967-11-01 00:00:00,2019-12-31 00:00:00,20,AST,0,15,meso-scale
CAN,01AJ010,BECAGUIMEC STREAM AT COLDSTREAM,46.34089,-67.46511,WSC 20222 data set,46.34079328,-67.46518666,WSC 20222 data set,46.34071998,-67.46511335,-999.0,-999.0,,348.3235362,HYDAT gross drainage area,350.0,HYDAT effective drainage area,,yes,WSC 2022 data set,349.503,0.974516367,,high,,2011-01-01 01:00:00,2022-12-10 03:00:00,28,1973-06-01 00:00:00,2020-12-31 00:00:00,12,AST,0,3,meso-scale
CAN,01AK001,SHOGOMOC STREAM NEAR TRANS CANADA HIGHWAY,45.94353,-67.32036,WSC 20222 data set,45.94275492,-67.32046286,WSC 20222 data set,45.94285889,-67.32035889,-999.0,-999.0,,232.8531292,HYDAT gross drainage area,234.0,HYDAT effective drainage area,,yes,WSC 2022 data set,233.811,0.981045703,,high,,2010-12-31 20:00:00,2023-01-02 23:00:00,92,1950-01-01 00:00:00,2020-12-31 00:00:00,0,AST,0,5,meso-scale
CAN,01AK006,MIDDLE BRANCH NASHWAAKSIS STREAM AT SANDWITH'S FARM,46.08281,-66.73303,WSC 20222 data set,46.08283117,-66.73320381,WSC 20222 data set,46.04583333,-66.69833333,46.08283117,-66.73320381,yes,4.804270759,HYDAT gross drainage area,5.699999809,HYDAT effective drainage area,,yes,WSC 2022 data set,5.1057,0.85545853,gauge is subbasin of MERIT headwater basin,medium,"Very flat region, difference with reference shape likely explained by DEM differences",2010-12-31 20:00:00,2022-12-10 03:00:00,170,1966-11-01 00:00:00,2019-12-31 00:00:00,0,AST,1,1,headwater
CAN,01AK007,NACKAWIC STREAM NEAR TEMPERANCE VALE,46.04878,-67.23961,WSC 20222 data set,46.04871005,-67.23958614,WSC 20222 data set,46.04871005,-67.24,-999.0,-999.0,,246.837962,HYDAT gross drainage area,240.0,HYDAT effective drainage area,,yes,WSC 2022 data set,248.504,0.980227839,,high,,2011-01-01 01:00:00,2022-12-10 03:00:00,41,1967-11-01 00:00:00,2019-12-31 00:00:00,16,AST,0,7,meso-scale
CAN,01AL002,NASHWAAK RIVER AT DURHAM BRIDGE,46.12592,-66.61131,WSC 20222 data set,46.12591122,-66.61165083,WSC 20222 data set,46.12586436,-66.61169769,-999.0,-999.0,,1466.685406,HYDAT gross drainage area,1450.0,HYDAT effective drainage area,,yes,WSC 2022 data set,1448.52,0.974612418,,high,CAN_01AL002 shares part of its upstream area with gauge CAN_01AL004.,2011-01-01 01:00:00,2023-01-02 23:00:00,1238,1962-01-01 00:00:00,2019-12-31 00:00:00,0,AST,0,44,macro-scale
CAN,01AL004,NARROWS MOUNTAIN BROOK NEAR NARROWS MOUNTAIN,46.27717,-67.02139,WSC 20222 data set,46.27707682,-67.02131024,WSC 20222 data set,46.28416667,-67.01666667,46.27707682,-67.02131024,yes,1.737232963,HYDAT gross drainage area,3.890000105,HYDAT effective drainage area,,yes,WSC 2022 data set,3.9177,0.356944161,gauge is subbasin along MERIT main river stem,low,"Very flat region, DEM accuracy is debatable due to potholes; CAN_01AL004 shares part of its upstream area with gauge CAN_01AL002.",2010-12-31 20:00:00,2022-12-11 03:00:00,5,1972-01-01 00:00:00,2020-12-31 00:00:00,0,AST,1,1,headwater
CAN,01AM001,NORTH BRANCH OROMOCTO RIVER AT TRACY,45.67378,-66.68289,WSC 20222 data set,45.67389633,-66.68301592,WSC 20222 data set,45.67416667,-66.68301592,-999.0,-999.0,,557.1175151,HYDAT gross drainage area,557.0,HYDAT effective drainage area,,yes,WSC 2022 data set,559.364,0.980686833,,high,,2011-01-01 01:00:00,2023-01-02 23:00:00,315,1962-10-01 00:00:00,2019-12-31 00:00:00,0,AST,0,11,meso-scale
CAN,01AN002,SALMON RIVER AT CASTAWAY,46.29072,-65.72275,WSC 20222 data set,46.29050349,-65.72316342,WSC 20222 data set,46.29083333,-65.72316342,-999.0,-999.0,,1053.375642,HYDAT gross drainage area,1050.0,HYDAT effective drainage area,,yes,WSC 2022 data set,1045.37,0.967622837,,high,,2011-01-01 01:00:00,2023-01-02 23:00:00,273,1974-01-01 00:00:00,2020-12-31 00:00:00,0,AST,0,19,macro-scale
CAN,01AP002,CANAAN RIVER AT EAST CANAAN,46.07236,-65.36639,WSC 20222 data set,46.07194118,-65.36592573,WSC 20222 data set,46.07175773,-65.36574227,-999.0,-999.0,,649.7947163,HYDAT gross drainage area,668.0,HYDAT effective drainage area,,yes,WSC 2022 data set,647.702,0.964194188,,high,,2010-12-31 20:00:00,2023-01-02 23:00:00,38,1962-10-01 00:00:00,2020-12-31 00:00:00,0,AST,0,17,meso-scale
CAN,01AP004,KENNEBECASIS RIVER AT APOHAQUI,45.70139,-65.60169,WSC 20222 data set,45.70134675,-65.60163589,WSC 20222 data set,45.7015221,-65.60181124,-999.0,-999.0,,1104.448233,HYDAT gross drainage area,1100.0,HYDAT effective drainage area,,yes,WSC 2022 data set,1100.97,0.989311344,,high,,2011-01-01 01:00:00,2023-01-02 23:00:00,49,1961-06-01 00:00:00,2020-12-31 00:00:00,0,AST,0,27,macro-scale
CAN,01AP006,NEREPIS RIVER NEAR FOWLERS CORNER,45.50344,-66.31897,WSC 20222 data set,45.50328283,-66.31889237,WSC 20222 data set,45.5035876,-66.3185876,-999.0,-999.0,,293.7486315,HYDAT gross drainage area,293.0,HYDAT effective drainage area,,yes,WSC 2022 data set,291.79,0.981331386,,high,,2011-01-01 01:00:00,2023-01-02 23:00:00,224,1976-01-01 00:00:00,2019-12-31 00:00:00,0,AST,0,7,meso-scale
CAN,01AQ001,LEPREAU RIVER AT LEPREAU,45.16978,-66.46828,WSC 20222 data set,45.16983204,-66.46827734,WSC 20222 data set,45.16994402,-66.46838932,-999.0,-999.0,,237.3189243,HYDAT gross drainage area,239.0,HYDAT effective drainage area,,yes,WSC 2022 data set,231.719,0.956969147,,high,,2011-01-01 00:00:00,2023-01-02 23:00:00,80,1950-01-01 00:00:00,2019-12-31 00:00:00,0,AST,0,3,meso-scale
CAN,01BC001,RESTIGOUCHE RIVER BELOW KEDGWICK RIVER,47.66708,-67.48308,WSC 20222 data set,47.66714749,-67.48345591,WSC 20222 data set,47.66726246,-67.48357088,-999.0,-999.0,,3175.268687,HYDAT gross drainage area,3160.0,HYDAT effective drainage area,,yes,WSC 2022 data set,3169.44,0.990041361,,high,CAN_01BC001 shares part of its upstream area with gauge CAN_01BJ007.,2010-12-31 20:00:00,2023-01-02 23:00:00,27,1962-10-01 00:00:00,2020-12-31 00:00:00,0,AST,0,69,macro-scale
CAN,01BE001,UPSALQUITCH RIVER AT UPSALQUITCH,47.83247,-66.88708,WSC 20222 data set,47.83243495,-66.88749375,WSC 20222 data set,47.83205393,-66.88711273,-999.0,-999.0,,2266.393943,HYDAT gross drainage area,2270.0,HYDAT effective drainage area,,yes,WSC 2022 data set,2264.73,0.9916848,,high,CAN_01BE001 shares part of its upstream area with gauge CAN_01BJ007.,2010-12-31 20:00:00,2023-01-02 23:00:00,2206,1950-01-01 00:00:00,2020-12-31 00:00:00,0,AST,0,53,macro-scale
CAN,01BJ003,JACQUET RIVER NEAR DURHAM CENTRE,47.89381,-66.02522,WSC 20222 data set,47.89399607,-66.02510242,WSC 20222 data set,47.89416667,-66.02510242,-999.0,-999.0,,499.4863064,HYDAT gross drainage area,510.0,HYDAT effective drainage area,,yes,WSC 2022 data set,502.469,0.982784878,,high,,2011-01-01 01:00:00,2023-01-02 23:00:00,8,1964-10-01 00:00:00,2020-12-31 00:00:00,0,AST,0,13,meso-scale
CAN,01BJ007,RESTIGOUCHE RIVER ABOVE RAFTING GROUND BROOK,47.90867,-66.94806,WSC 20222 data set,47.90797278,-66.94908719,WSC 20222 data set,47.90833333,-66.94908719,-999.0,-999.0,,7829.669159,HYDAT gross drainage area,7740.0,HYDAT effective drainage area,,yes,WSC 2022 data set,7806.05,0.992231782,,high,"CAN_01BJ007 shares part of its upstream area with gauges CAN_01BC001, CAN_01BE001.",2010-12-31 21:00:00,2023-01-02 23:00:00,370,1968-07-01 00:00:00,2020-12-31 00:00:00,6,AST,0,181,macro-scale
CAN,01BJ010,MIDDLE RIVER NEAR BATHURST,47.60839,-65.72181,WSC 20222 data set,47.60828838,-65.72159158,WSC 20222 data set,47.60868998,-65.72118998,-999.0,-999.0,,220.0401537,HYDAT gross drainage area,217.0,HYDAT effective drainage area,,yes,WSC 2022 data set,219.676,0.9648497,,high,,2011-01-01 01:00:00,2023-01-02 23:00:00,18,1981-09-01 00:00:00,2019-12-31 00:00:00,0,AST,0,5,meso-scale
CAN,01BJ012,EEL RIVER NEAR DUNDEE,47.98789,-66.49061,WSC 20222 data set,47.98771703,-66.49063129,WSC 20222 data set,47.98812621,-66.49104046,-999.0,-999.0,,44.3326833,HYDAT gross drainage area,43.20000076,HYDAT effective drainage area,,yes,WSC 2022 data set,44.9136,0.958775133,,high,,2011-01-01 01:00:00,2023-01-02 23:00:00,1009,1984-01-01 00:00:00,2020-12-31 00:00:00,0,AST,1,1,headwater
CAN,01BL002,RIVIERE CARAQUET AT BURNSVILLE,47.70561,-65.15539,WSC 20222 data set,47.70573113,-65.15552998,WSC 20222 data set,47.70551724,-65.15531609,47.70504,-65.15583,yes,178.0796568,HYDAT gross drainage area,173.0,HYDAT effective drainage area,,yes,WSC 2022 data set,182.794,0.907102992,gauge is at a confluence,high,,2011-01-01 01:00:00,2023-01-02 23:00:00,39,1969-10-01 00:00:00,2020-12-31 00:00:00,29,AST,0,5,meso-scale
CAN,01BL003,BIG TRACADIE RIVER AT MURCHY BRIDGE CROSSING,47.43578,-65.10606,WSC 20222 data set,47.435724,-65.10605778,WSC 20222 data set,47.43566644,-65.10600023,-999.0,-999.0,,372.4242869,HYDAT gross drainage area,383.0,HYDAT effective drainage area,,yes,WSC 2022 data set,363.435,0.95368666,,high,,2011-01-01 01:00:00,2023-01-02 23:00:00,14,1970-10-01 00:00:00,2020-12-31 00:00:00,27,AST,0,7,meso-scale
CAN,01BO001,SOUTHWEST MIRAMICHI RIVER AT BLACKVILLE,46.736,-65.82561,WSC 20222 data set,46.73616217,-65.82610405,WSC 20222 data set,46.73616217,-65.82666667,-999.0,-999.0,,5107.500913,HYDAT gross drainage area,5050.0,HYDAT effective drainage area,,yes,WSC 2022 data set,5126.48,0.984243271,,high,,2011-01-01 00:00:00,2023-01-02 23:00:00,2818,1961-06-01 00:00:00,2020-12-31 00:00:00,0,AST,0,119,macro-scale
CAN,01BP001,LITTLE SOUTHWEST MIRAMICHI RIVER AT LYTTLETON,46.93597,-65.90739,WSC 20222 data set,46.93608458,-65.90805954,WSC 20222 data set,46.93567919,-65.90765415,-999.0,-999.0,,1323.304604,HYDAT gross drainage area,1340.0,HYDAT effective drainage area,,yes,WSC 2022 data set,1327.47,0.987011576,,high,CAN_01BP001 shares part of its upstream area with gauge CAN_01BP002.,2011-01-01 00:00:00,2023-01-02 23:00:00,2969,1951-06-01 00:00:00,2020-12-31 00:00:00,7,AST,0,26,macro-scale
CAN,01BP002,CATAMARAN BROOK AT REPAP ROAD BRIDGE,46.85656,-66.19011,WSC 20222 data set,46.85654821,-66.18989913,WSC 20222 data set,46.86,-66.1825,-999.0,-999.0,,25.10301507,HYDAT gross drainage area,28.70000076,HYDAT effective drainage area,,yes,WSC 2022 data set,24.7023,0.927262233,,high,CAN_01BP002 shares part of its upstream area with gauge CAN_01BP001.,2011-01-01 01:00:00,2023-01-02 23:00:00,7,1989-10-01 00:00:00,2020-12-31 00:00:00,24,AST,1,1,headwater
CAN,01BQ001,NORTHWEST MIRAMICHI RIVER AT TROUT BROOK,47.09475,-65.8365,WSC 20222 data set,47.09482385,-65.83674459,WSC 20222 data set,47.09453422,-65.83703422,-999.0,-999.0,,972.0757854,HYDAT gross drainage area,948.0,HYDAT effective drainage area,,yes,WSC 2022 data set,977.437,0.98362229,,high,,2011-01-01 01:00:00,2023-01-02 23:00:00,24,1961-10-01 00:00:00,2020-12-31 00:00:00,0,AST,0,21,meso-scale
CAN,01BS001,COAL BRANCH RIVER AT BEERSVILLE,46.44394,-65.06494,WSC 20222 data set,46.44411248,-65.06426943,WSC 20222 data set,46.44411248,-65.06416667,-999.0,-999.0,,180.7288905,HYDAT gross drainage area,166.0,HYDAT effective drainage area,,yes,WSC 2022 data set,179.158,0.927730206,,high,,2011-01-01 01:00:00,2023-01-02 23:00:00,1339,1964-09-01 00:00:00,2019-12-31 00:00:00,0,AST,0,5,meso-scale
CAN,01BU002,PETITCODIAC RIVER NEAR PETITCODIAC,45.94639,-65.16819,WSC 20222 data set,45.94619237,-65.16753728,WSC 20222 data set,45.94641088,-65.16775579,-999.0,-999.0,,407.5704958,HYDAT gross drainage area,391.0,HYDAT effective drainage area,,yes,WSC 2022 data set,417.586,0.95834664,,high,CAN_01BU002 shares part of its upstream area with gauge CAN_01BU009.,2011-01-01 00:00:00,2023-01-02 23:00:00,122,1961-09-01 00:00:00,2019-12-31 00:00:00,5,AST,0,12,meso-scale
CAN,01BU009,HOLMES BROOK SITE NO. 9 NEAR PETITCODIAC,45.88786,-65.14678,WSC 20222 data set,45.88781651,-65.14612472,WSC 20222 data set,45.92166667,-65.175,45.88781651,-65.14612472,yes,5.794729373,HYDAT gross drainage area,6.199999809,HYDAT effective drainage area,,yes,WSC 2022 data set,5.5746,0.902753611,gauge is subbasin of MERIT headwater basin,high,CAN_01BU009 shares part of its upstream area with gauge CAN_01BU002.,2011-01-01 01:00:00,2023-01-02 23:00:00,57,1995-03-01 00:00:00,2020-12-31 00:00:00,48,AST,1,1,headwater
CAN,01BV004,BLACK RIVER AT GARNET SETTLEMENT,45.30658,-65.84922,WSC 20222 data set,45.3064732,-65.84881576,WSC 20222 data set,45.30632872,-65.84867128,-999.0,-999.0,,40.0529201,HYDAT gross drainage area,40.40000153,HYDAT effective drainage area,,yes,WSC 2022 data set,39.5964,0.950387943,,high,,2011-01-01 01:00:00,2022-12-08 23:00:00,5433,1960-12-01 00:00:00,2020-11-30 00:00:00,45,AST,1,1,headwater
CAN,01BV006,POINT WOLFE RIVER AT FUNDY NATIONAL PARK,45.55856,-65.01597,WSC 20222 data set,45.5588648,-65.01524425,WSC 20222 data set,45.55872119,-65.01538786,-999.0,-999.0,,135.9629185,HYDAT gross drainage area,130.0,HYDAT effective drainage area,,yes,WSC 2022 data set,136.355,0.973481596,,high,,2011-01-01 01:00:00,2023-01-01 03:00:00,173,1964-04-01 00:00:00,2020-12-31 00:00:00,10,AST,1,1,headwater
CAN,01CA003,CARRUTHERS BROOK NEAR ST. ANTHONY,46.74411,-64.187,WSC 20222 data set,46.74350642,-64.1867726,WSC 20222 data set,46.74333333,-64.1867726,-999.0,-999.0,,48.75392004,HYDAT gross drainage area,46.79999924,HYDAT effective drainage area,,yes,WSC 2022 data set,48.4956,0.927937402,,high,,2011-01-01 01:00:00,2023-01-02 23:00:00,148,1961-08-01 00:00:00,2020-12-31 00:00:00,23,AST,1,1,headwater
CAN,01CC005,WEST RIVER AT RIVERDALE,46.23139,-63.35108,WSC 20222 data set,46.23101916,-63.35120686,WSC 20222 data set,46.23083333,-63.35120686,-999.0,-999.0,,70.14236003,HYDAT gross drainage area,70.09999847,HYDAT effective drainage area,,yes,WSC 2022 data set,70.1631,0.982413771,,high,,2010-12-31 20:00:00,2023-01-02 23:00:00,49,1986-05-01 00:00:00,2020-12-31 00:00:00,620,AST,1,1,headwater
CAN,01CD005,BEAR RIVER AT ST. MARGARETS,46.45314,-62.38233,WSC 20222 data set,46.45301607,-62.38240256,WSC 20222 data set,-999.0,-999.0,-999.0,-999.0,,14.65154748,HYDAT gross drainage area,14.80000019,HYDAT effective drainage area,,yes,WSC 2022 data set,15.0525,0.910872725,,high,,2010-12-31 20:00:00,2023-01-02 23:00:00,201,1995-01-01 00:00:00,2020-12-31 00:00:00,0,AST,1,1,headwater
CAN,01DG003,BEAVERBANK RIVER NEAR KINSAC,44.85111,-63.66389,WSC 20222 data set,44.85121454,-63.66386612,WSC 20222 data set,44.85121454,-63.66333333,-999.0,-999.0,,91.68937848,HYDAT gross drainage area,96.90000153,HYDAT effective drainage area,,yes,WSC 2022 data set,95.3334,0.939874656,,high,,2010-12-31 21:00:00,2023-01-02 23:00:00,1120,1950-01-01 00:00:00,2020-12-31 00:00:00,33,AST,1,1,headwater
CAN,01DJ005,GREAT VILLAGE RIVER NEAR SCRABBLE HILL,45.43822,-63.598,WSC 20222 data set,45.43814287,-63.59863349,WSC 20222 data set,45.43814287,-63.59833333,-999.0,-999.0,,93.46643086,HYDAT gross drainage area,89.0,HYDAT effective drainage area,,yes,WSC 2022 data set,88.821,0.937168709,,high,,2011-01-01 00:00:00,2023-01-02 23:00:00,140,1993-09-01 00:00:00,2020-12-31 00:00:00,21,AST,0,3,meso-scale
CAN,01DL001,KELLEY RIVER (MILL CREEK) AT EIGHT MILE FORD,45.58681,-64.45069,WSC 20222 data set,45.58695821,-64.45070372,WSC 20222 data set,45.58695821,-64.45083333,-999.0,-999.0,,65.50848901,HYDAT gross drainage area,63.20000076,HYDAT effective drainage area,,yes,WSC 2022 data set,63.9981,0.934133825,,high,,2011-01-01 00:00:00,2023-01-02 22:00:00,1686,1969-12-01 00:00:00,2020-12-31 00:00:00,26,AST,1,1,headwater
CAN,01DP004,MIDDLE RIVER OF PICTOU AT ROCKLIN,45.49739,-62.78019,WSC 20222 data set,45.49733405,-62.77987101,WSC 20222 data set,45.49748152,-62.78001848,-999.0,-999.0,,92.8694712,HYDAT gross drainage area,92.19999695,HYDAT effective drainage area,,yes,WSC 2022 data set,90.6795,0.95183131,,high,,2010-12-31 21:00:00,2023-01-02 23:00:00,784,1965-12-01 00:00:00,2020-12-31 00:00:00,1,AST,1,1,headwater
CAN,01DR001,SOUTH RIVER AT ST. ANDREWS,45.55972,-61.90364,WSC 20222 data set,45.55968055,-61.90386979,WSC 20222 data set,45.55957205,-61.90376129,-999.0,-999.0,,179.963004,HYDAT gross drainage area,177.0,HYDAT effective drainage area,,yes,WSC 2022 data set,180.323,0.964002086,,high,,2010-12-31 21:00:00,2023-01-02 23:00:00,606,1965-09-01 00:00:00,2020-12-31 00:00:00,12,AST,0,3,meso-scale
CAN,01EC001,ROSEWAY RIVER AT LOWER OHIO,43.83736,-65.36911,WSC 20222 data set,43.83745727,-65.36952128,WSC 20222 data set,43.83723927,-65.36973927,-999.0,-999.0,,497.7709163,HYDAT gross drainage area,495.0,HYDAT effective drainage area,,yes,WSC 2022 data set,498.501,0.977052091,,high,,2010-12-31 20:00:00,2023-01-02 23:00:00,145,1950-01-01 00:00:00,2021-12-31 00:00:00,0,AST,0,11,meso-scale
CAN,01ED005,MERSEY RIVER BELOW GEORGE LAKE,44.33314,-65.20508,WSC 20222 data set,44.33310985,-65.2047184,WSC 20222 data set,44.33333333,-65.2047184,-999.0,-999.0,,725.4305493,HYDAT gross drainage area,723.0,HYDAT effective drainage area,,yes,WSC 2022 data set,722.302,0.975087536,,high,CAN_01ED005 shares part of its upstream area with gauge CAN_01ED007.,2011-01-01 01:00:00,2023-01-02 23:00:00,1252,1968-06-01 00:00:00,2020-12-31 00:00:00,9,AST,0,16,meso-scale
CAN,01ED007,MERSEY RIVER BELOW MILL FALLS,44.43678,-65.22186,WSC 20222 data set,44.43713951,-65.22171857,WSC 20222 data set,44.43333333,-65.23833333,44.44678,-65.19083,yes,285.3320639,HYDAT gross drainage area,295.0,HYDAT effective drainage area,,yes,WSC 2022 data set,291.415,0.945147814,moved gauge to different stream to get approximate match with reference shape,low,"Very flat region, DEM accuracy is debatable due to potholes; CAN_01ED007 shares part of its upstream area with gauge CAN_01ED005.",2011-01-01 01:00:00,2023-01-02 23:00:00,1396,1968-06-01 00:00:00,2020-12-31 00:00:00,12,AST,0,5,meso-scale
CAN,01EE005,MOOSE PIT BROOK AT TUPPER LAKE,44.46183,-65.04778,WSC 20222 data set,44.4615804,-65.04754241,WSC 20222 data set,44.44416667,-65.005,44.4615804,-65.04754241,yes,15.70759403,HYDAT gross drainage area,17.70000076,HYDAT effective drainage area,,yes,WSC 2022 data set,17.6418,0.8336023,gauge is subbasin of MERIT headwater basin,medium,"Very flat region, difference with reference shape likely explained by DEM differences",2010-12-31 23:00:00,2023-01-02 22:00:00,338,1981-10-01 00:00:00,2020-12-31 00:00:00,28,AST,1,1,headwater
CAN,01EF001,LAHAVE RIVER AT WEST NORTHFIELD,44.44744,-64.59119,WSC 20222 data set,44.44731039,-64.59180131,WSC 20222 data set,44.4475,-64.59180131,-999.0,-999.0,,1240.213493,HYDAT gross drainage area,1250.0,HYDAT effective drainage area,,yes,WSC 2022 data set,1258.64,0.974090965,,high,,2010-12-31 20:00:00,2023-01-02 23:00:00,843,1950-01-01 00:00:00,2020-12-31 00:00:00,0,AST,0,29,macro-scale
CAN,01EO001,ST. MARYS RIVER AT STILLWATER,45.17439,-61.97992,WSC 20222 data set,45.17413519,-61.98000847,WSC 20222 data set,45.17414669,-61.98001998,-999.0,-999.0,,1346.290267,HYDAT gross drainage area,1350.0,HYDAT effective drainage area,,yes,WSC 2022 data set,1336.73,0.978200135,,high,,2010-12-31 21:00:00,2023-01-02 23:00:00,852,1950-01-01 00:00:00,2020-12-31 00:00:00,0,AST,0,31,macro-scale
CAN,01FA001,RIVER INHABITANTS AT GLENORA,45.72025,-61.28611,WSC 20222 data set,45.7202061,-61.28639045,WSC 20222 data set,45.7202061,-61.28583333,-999.0,-999.0,,194.2846437,HYDAT gross drainage area,193.0,HYDAT effective drainage area,,yes,WSC 2022 data set,192.573,0.977447512,,high,,2010-12-31 21:00:00,2023-01-02 23:00:00,32,1965-09-01 00:00:00,2020-12-31 00:00:00,14,AST,0,5,meso-scale
CAN,01FB001,NORTHEAST MARGAREE RIVER AT MARGAREE VALLEY,46.36897,-60.97528,WSC 20222 data set,46.36888956,-60.97496184,WSC 20222 data set,46.36859237,-60.97525903,-999.0,-999.0,,367.373623,HYDAT gross drainage area,368.0,HYDAT effective drainage area,,yes,WSC 2022 data set,368.236,0.98364564,,high,,2010-12-31 20:00:00,2022-12-31 22:00:00,798,1950-01-01 00:00:00,2020-12-31 00:00:00,0,AST,0,9,meso-scale
CAN,01FB003,SOUTHWEST MARGAREE RIVER NEAR UPPER MARGAREE,46.22311,-61.13692,WSC 20222 data set,46.22302251,-61.13674528,WSC 20222 data set,46.22321722,-61.13655056,-999.0,-999.0,,358.9824137,HYDAT gross drainage area,357.0,HYDAT effective drainage area,,yes,WSC 2022 data set,361.792,0.981417111,,high,,2010-12-31 21:00:00,2023-01-02 23:00:00,141,1950-01-01 00:00:00,2020-12-31 00:00:00,0,AST,0,9,meso-scale
CAN,01FJ002,MACASKILLS BROOK NEAR BIRCH GROVE,46.11789,-60.00467,WSC 20222 data set,46.11777873,-60.00458803,WSC 20222 data set,46.1275,-59.99416667,46.11777873,-60.00458803,yes,17.32410551,HYDAT gross drainage area,17.20000076,HYDAT effective drainage area,,yes,WSC 2022 data set,17.0631,0.944926779,gauge is subbasin of MERIT headwater basin,high,,2010-12-31 20:00:00,2023-01-02 23:00:00,133,1978-03-01 00:00:00,2019-12-31 00:00:00,0,AST,1,1,headwater
CAN,02AB008,NEEBING RIVER NEAR THUNDER BAY,48.38339,-89.30656,WSC 20222 data set,48.38341962,-89.30671991,WSC 20222 data set,48.38333333,-89.30671991,-999.0,-999.0,,200.4179925,HYDAT gross drainage area,187.0,HYDAT effective drainage area,,yes,WSC 2022 data set,208.492,0.933523742,,high,,2011-01-01 00:00:00,2023-01-02 23:00:00,17852,1953-08-01 00:00:00,2020-12-31 00:00:00,15,EST,0,5,meso-scale
CAN,02AB014,NORTH CURRENT RIVER NEAR THUNDER BAY,48.51956,-89.17503,WSC 20222 data set,48.51958156,-89.1749487,WSC 20222 data set,48.5189831,-89.17435024,-999.0,-999.0,,97.80380249,HYDAT gross drainage area,105.0,HYDAT effective drainage area,,yes,WSC 2022 data set,105.195,0.865075225,,medium,"Very flat region, difference with reference shape likely explained by DEM differences due to presence of lakes/potholes",2011-01-01 00:00:00,2023-01-02 23:00:00,18446,1972-01-01 00:00:00,2020-12-31 00:00:00,18,EST,1,1,headwater
CAN,02AB017,WHITEFISH RIVER AT NOLALU,48.29211,-89.80986,WSC 20222 data set,48.29181549,-89.80930083,WSC 20222 data set,48.29180816,-89.80930816,-999.0,-999.0,,191.9104135,HYDAT gross drainage area,226.0,HYDAT effective drainage area,,yes,WSC 2022 data set,225.903,0.833878207,,medium,"Very flat region, difference with reference shape likely explained by DEM differences due to presence of lakes/potholes",2011-01-01 00:00:00,2023-01-02 23:00:00,17535,1980-01-01 00:00:00,2020-12-31 00:00:00,18,EST,0,5,meso-scale
CAN,02AB021,CURRENT RIVER AT STEPSTONE,48.56244,-89.24067,WSC 20222 data set,48.5626692,-89.24043355,WSC 20222 data set,48.5626692,-89.24083333,-999.0,-999.0,,406.1995384,HYDAT gross drainage area,407.0,HYDAT effective drainage area,,yes,WSC 2022 data set,406.869,0.96252975,,high,,2011-01-01 00:00:00,2023-01-02 23:00:00,17576,1989-01-01 00:00:00,2020-12-31 00:00:00,74,EST,0,7,meso-scale
CAN,02AC001,WOLF RIVER AT HIGHWAY NO. 17,48.82169,-88.53461,WSC 20222 data set,48.82213146,-88.53445301,WSC 20222 data set,48.82204223,-88.53454223,-999.0,-999.0,,609.6973654,HYDAT gross drainage area,726.0,HYDAT effective drainage area,,yes,WSC 2022 data set,728.436,0.794976808,,medium,"Very flat region, difference with reference shape likely explained by DEM differences",2011-01-01 00:00:00,2023-01-02 23:00:00,19500,1971-01-01 00:00:00,2021-12-31 00:00:00,147,EST,0,13,meso-scale
CAN,02AC002,BLACK STURGEON RIVER AT HIGHWAY NO. 17,48.90422,-88.37686,WSC 20222 data set,48.90381451,-88.37818463,WSC 20222 data set,48.90391623,-88.3780829,-999.0,-999.0,,2698.064894,HYDAT gross drainage area,2980.0,HYDAT effective drainage area,,yes,WSC 2022 data set,2622.31,0.940505282,,high,,2011-01-01 00:00:00,2023-01-02 23:00:00,15956,1971-03-01 00:00:00,2021-12-31 00:00:00,72,EST,0,55,macro-scale
CAN,02AD010,BLACKWATER RIVER AT BEARDMORE,49.59761,-87.96544,WSC 20222 data set,49.59771867,-87.9654775,WSC 20222 data set,49.59778725,-87.96554608,-999.0,-999.0,,649.1633663,HYDAT gross drainage area,652.0,HYDAT effective drainage area,,yes,WSC 2022 data set,648.709,0.985583334,,high,,2010-12-31 20:00:00,2023-01-02 23:00:00,14857,1971-03-01 00:00:00,2020-12-31 00:00:00,116,EST,0,9,meso-scale
CAN,02AE001,GRAVEL RIVER NEAR CAVERS,48.926,-87.69019,WSC 20222 data set,48.92603913,-87.69010427,WSC 20222 data set,48.92583333,-87.69010427,-999.0,-999.0,,647.4905337,HYDAT gross drainage area,608.0,HYDAT effective drainage area,,yes,WSC 2022 data set,608.926,0.898448264,,medium,"Very flat region, difference with reference shape likely explained by DEM differences due to presence of lakes/potholes",2010-12-31 20:00:00,2023-01-02 23:00:00,18445,1974-10-01 00:00:00,2022-12-31 00:00:00,28,EST,0,11,meso-scale
CAN,02BA003,LITTLE PIC RIVER NEAR COLDWELL,48.84911,-86.60722,WSC 20222 data set,48.84914902,-86.60707133,WSC 20222 data set,48.84937218,-86.60729449,-999.0,-999.0,,2013.720869,HYDAT gross drainage area,1320.0,HYDAT effective drainage area,,yes,WSC 2022 data set,1323.72,0.651984187,,medium,"Very flat region, MERIT DEM connects another subbasin to this outlet through a region of marshland; see 02BB003",2011-01-01 00:00:00,2023-01-02 23:00:00,19631,1972-06-01 00:00:00,2021-12-31 00:00:00,7,EST,0,33,macro-scale
CAN,02BA005,WHITESAND RIVER ABOVE SCHREIBER AT MINOVA MINE,48.97811,-87.37678,WSC 20222 data set,48.97771903,-87.37669659,WSC 20222 data set,48.93083333,-87.36583333,48.97771903,-87.37669659,yes,10.73454566,HYDAT gross drainage area,10.80000019,HYDAT effective drainage area,,yes,WSC 2022 data set,10.962,0.945343788,gauge is subbasin of MERIT headwater basin,high,,2011-01-01 00:00:00,2023-01-02 23:00:00,17133,1989-02-01 00:00:00,2020-12-31 00:00:00,11,EST,1,1,headwater
CAN,02BB003,PIC RIVER NEAR MARATHON,48.77408,-86.29661,WSC 20222 data set,48.77372343,-86.29665031,WSC 20222 data set,48.77395323,-86.29688011,-999.0,-999.0,,3752.872967,HYDAT gross drainage area,4220.0,HYDAT effective drainage area,,yes,WSC 2022 data set,4215.23,0.825638975,,medium,"Very flat region, MERIT DEM connects part of this basin to another outlet through a region of marshland; see 02BA003",2011-01-01 00:00:00,2023-01-02 23:00:00,20408,1970-02-01 00:00:00,2020-12-31 00:00:00,5,EST,0,79,macro-scale
CAN,02BF001,BATCHAWANA RIVER NEAR BATCHAWANA,47.00353,-84.51556,WSC 20222 data set,47.00341368,-84.51549321,WSC 20222 data set,47.00333333,-84.51549321,-999.0,-999.0,,1302.795722,HYDAT gross drainage area,1230.0,HYDAT effective drainage area,,yes,WSC 2022 data set,1228.5,0.904590704,,high,"CAN_02BF001 shares part of its upstream area with gauges CAN_02BF005, CAN_02BF006, CAN_02BF007, CAN_02BF008, CAN_02BF009, CAN_02BF012, CAN_02BF013.",2011-01-01 01:00:00,2023-01-02 23:00:00,3223,1967-10-01 00:00:00,2021-12-31 00:00:00,23,EST,0,28,macro-scale
CAN,02BF002,GOULAIS RIVER NEAR SEARCHMONT,46.86094,-83.97181,WSC 20222 data set,46.86110136,-83.97175235,WSC 20222 data set,46.86142686,-83.97142686,-999.0,-999.0,,1135.446167,HYDAT gross drainage area,1140.0,HYDAT effective drainage area,,yes,WSC 2022 data set,1137.49,0.972451634,,high,,2011-01-01 01:00:00,2023-01-02 23:00:00,2425,1967-11-01 00:00:00,2021-12-31 00:00:00,0,EST,0,27,macro-scale
CAN,02BF004,BIG CARP RIVER NEAR SAULT STE. MARIE,46.51589,-84.46518,WSC 20222 data set,46.51567268,-84.46513856,WSC 20222 data set,46.51567268,-84.465,-999.0,-999.0,,48.54933712,HYDAT gross drainage area,51.0,HYDAT effective drainage area,,yes,WSC 2022 data set,49.9248,0.940252417,,high,,2011-01-01 00:00:00,2023-01-02 23:00:00,429,1979-08-01 00:00:00,2021-12-31 00:00:00,27,EST,1,1,headwater
CAN,02CA002,ROOT RIVER AT SAULT STE. MARIE,46.56286,-84.28169,WSC 20222 data set,46.56304438,-84.2813997,WSC 20222 data set,46.5625,-84.2813997,-999.0,-999.0,,65.82948591,HYDAT gross drainage area,109.0,HYDAT effective drainage area,,yes,WSC 2022 data set,108.079,0.5985226,,low,"Very flat region, MERIT DEM connects out parts of this basin to other basins by mistakenly identifying roads as rivers",2011-01-01 00:00:00,2023-01-02 23:00:00,3101,1971-02-01 00:00:00,2021-12-31 00:00:00,19,EST,0,3,meso-scale
CAN,02CB003,AUBINADONG RIVER ABOVE SESABIC CREEK,46.96842,-83.41686,WSC 20222 data set,46.96859331,-83.41744062,WSC 20222 data set,46.96801696,-83.41801696,-999.0,-999.0,,1370.998283,HYDAT gross drainage area,1450.0,HYDAT effective drainage area,,yes,WSC 2022 data set,1450.71,0.933903743,,high,,2011-01-01 01:00:00,2023-01-02 23:00:00,1228,1980-09-01 00:00:00,2021-12-31 00:00:00,11,EST,0,33,macro-scale
CAN,02CF007,WHITSON RIVER AT CHELMSFORD,46.58336,-81.19911,WSC 20222 data set,46.58324781,-81.19911094,WSC 20222 data set,46.58331843,-81.19918157,-999.0,-999.0,,288.5952968,HYDAT gross drainage area,277.0,HYDAT effective drainage area,,yes,WSC 2022 data set,274.167,0.906739255,,high,CAN_02CF007 shares part of its upstream area with gauge CAN_02CF008.,2011-01-01 02:00:00,2023-01-02 23:00:00,53,1960-07-01 00:00:00,2021-12-31 00:00:00,24,EST,0,8,meso-scale
CAN,02CF008,WHITSON RIVER AT VAL CARON,46.61017,-81.03297,WSC 20222 data set,46.61028529,-81.03290191,WSC 20222 data set,46.61035836,-81.03297498,-999.0,-999.0,,186.7930315,HYDAT gross drainage area,179.0,HYDAT effective drainage area,,yes,WSC 2022 data set,187.368,0.928575275,,high,CAN_02CF008 shares part of its upstream area with gauge CAN_02CF007.,2011-01-01 01:00:00,2023-01-02 23:00:00,50,1960-11-01 00:00:00,2021-12-31 00:00:00,883,EST,0,5,meso-scale
CAN,02CF011,VERMILION RIVER NEAR VAL CARON,46.68544,-81.00925,WSC 20222 data set,46.68553755,-81.00934691,WSC 20222 data set,46.68583333,-81.00934691,-999.0,-999.0,,735.1828741,HYDAT gross drainage area,680.0,HYDAT effective drainage area,,yes,WSC 2022 data set,687.777,0.879422102,,medium,"Very flat region, MERIT DEM connects another subbasin to this outlet through a region of flat terrain",2011-01-02 00:00:00,2023-01-02 23:00:00,29,1970-06-01 00:00:00,2021-12-31 00:00:00,183,EST,0,9,meso-scale
CAN,02CG003,BLUE JAY CREEK NEAR TEHKUMMAH,45.65169,-81.98661,WSC 20222 data set,45.65150557,-81.98636774,WSC 20222 data set,45.63583333,-82.00083333,45.65150557,-81.98636774,yes,14.02219743,HYDAT gross drainage area,17.89999962,HYDAT effective drainage area,,yes,WSC 2022 data set,13.5594,0.887593165,gauge is subbasin of MERIT headwater basin,medium,"Very flat region, difference with reference shape likely explained by DEM differences",2010-12-31 20:00:00,2023-01-02 23:00:00,110,1985-06-01 00:00:00,2021-12-31 00:00:00,102,EST,1,1,headwater
CAN,02DC012,STURGEON RIVER AT UPPER GOOSE FALLS,46.97025,-80.45878,WSC 20222 data set,46.96980759,-80.45880697,WSC 20222 data set,46.97,-80.45880697,-999.0,-999.0,,1236.893932,HYDAT gross drainage area,1200.0,HYDAT effective drainage area,,yes,WSC 2022 data set,1212.65,0.966956836,,high,,2011-01-01 01:00:00,2023-01-02 23:00:00,94,1986-01-01 00:00:00,2022-12-31 00:00:00,0,EST,0,27,macro-scale
CAN,02DD012,VEUVE RIVER NEAR VERNER,46.40819,-80.12281,WSC 20222 data set,46.40788648,-80.12280212,WSC 20222 data set,46.4075,-80.12280212,-999.0,-999.0,,940.9955234,HYDAT gross drainage area,741.0,HYDAT effective drainage area,,yes,WSC 2022 data set,935.968,0.959012027,,high,,2011-01-01 00:00:00,2023-01-02 22:00:00,741,1973-04-01 00:00:00,2021-12-31 00:00:00,15,EST,0,21,meso-scale
CAN,02DD013,LA VASE RIVER AT NORTH BAY,46.26344,-79.39511,WSC 20222 data set,46.26354851,-79.39530992,WSC 20222 data set,46.26317922,-79.39567922,-999.0,-999.0,,64.66996759,HYDAT gross drainage area,68.59999847,HYDAT effective drainage area,,yes,WSC 2022 data set,69.7212,0.859442883,,medium,"Very flat region, difference with reference shape due to DEM (mistakenly?) connecting rivers across a road",2011-01-01 01:00:00,2023-01-02 23:00:00,5907,1974-02-01 00:00:00,2021-12-31 00:00:00,52,EST,1,1,headwater
CAN,02DD015,COMMANDA CREEK NEAR COMMANDA,45.94919,-79.60658,WSC 20222 data set,45.94918457,-79.60648859,WSC 20222 data set,45.94916667,-79.60648859,-999.0,-999.0,,123.9560124,HYDAT gross drainage area,104.0,HYDAT effective drainage area,,yes,WSC 2022 data set,100.199,0.784451248,,low,"Very flat region, difference with reference shape due to DEM (mistakenly?) connecting rivers across a road",2011-01-01 01:00:00,2023-01-02 23:00:00,17,1974-10-01 00:00:00,2021-12-31 00:00:00,29,EST,1,1,headwater
CAN,02EA005,NORTH MAGNETAWAN RIVER NEAR BURK'S FALLS,45.66947,-79.37919,WSC 20222 data set,45.66946294,-79.37876822,WSC 20222 data set,45.66916667,-79.37833333,-999.0,-999.0,,311.5848125,HYDAT gross drainage area,329.0,HYDAT effective drainage area,,yes,WSC 2022 data set,329.622,0.919859041,,high,CAN_02EA005 shares part of its upstream area with gauge CAN_02EA010.,2010-12-31 19:00:00,2023-01-02 23:00:00,1324,1950-01-01 00:00:00,2022-12-31 00:00:00,0,EST,0,10,meso-scale
CAN,02EA010,NORTH MAGNETAWAN RIVER ABOVE PICKEREL LAKE,45.70377,-79.30879,WSC 20222 data set,45.7038138,-79.30890838,WSC 20222 data set,45.70416667,-79.30890838,-999.0,-999.0,,146.6342435,HYDAT gross drainage area,155.0,HYDAT effective drainage area,,yes,WSC 2022 data set,156.282,0.925277032,,high,CAN_02EA010 shares part of its upstream area with gauge CAN_02EA005.,2010-12-31 20:00:00,2023-01-02 23:00:00,1051,1968-01-01 00:00:00,2021-12-31 00:00:00,29,EST,0,3,meso-scale
CAN,02EB014,OXTONGUE RIVER NEAR DWIGHT,45.31197,-78.98939,WSC 20222 data set,45.31181604,-78.98945531,WSC 20222 data set,45.31188568,-78.98938568,-999.0,-999.0,,563.2039584,HYDAT gross drainage area,605.0,HYDAT effective drainage area,,yes,WSC 2022 data set,602.801,0.913030404,,high,,2011-01-01 01:00:00,2023-01-02 23:00:00,2417,1981-08-01 00:00:00,2021-12-31 00:00:00,30,EST,0,13,meso-scale
CAN,02EC002,BLACK RIVER NEAR WASHAGO,44.71367,-79.28161,WSC 20222 data set,44.7139394,-79.28167281,WSC 20222 data set,44.71363329,-79.28136671,-999.0,-999.0,,1431.753763,HYDAT gross drainage area,1510.0,HYDAT effective drainage area,,yes,WSC 2022 data set,1508.63,0.930620153,,high,,2011-01-01 01:00:00,2023-01-02 23:00:00,18,1950-01-01 00:00:00,2021-12-31 00:00:00,0,EST,0,35,macro-scale
CAN,02EC010,SCHOMBERG RIVER NEAR SCHOMBERG,44.01214,-79.68564,WSC 20222 data set,44.01236945,-79.68543692,WSC 20222 data set,44.0125,-79.68543692,-999.0,-999.0,,44.45798555,HYDAT gross drainage area,51.29999924,HYDAT effective drainage area,,yes,WSC 2022 data set,43.9605,0.975107987,,high,,2011-01-01 01:00:00,2023-01-02 23:00:00,2,1966-04-01 00:00:00,2021-12-31 00:00:00,82,EST,1,1,headwater
CAN,02EC011,BEAVER RIVER NEAR BEAVERTON,44.39708,-79.07083,WSC 20222 data set,44.39708254,-79.07108688,WSC 20222 data set,44.39666667,-79.07108688,-999.0,-999.0,,294.9756682,HYDAT gross drainage area,291.0,HYDAT effective drainage area,,yes,WSC 2022 data set,292.349,0.96601671,,high,,2011-01-01 00:00:00,2023-01-02 23:00:00,2532,1966-10-01 00:00:00,2021-12-31 00:00:00,26,EST,0,5,meso-scale
CAN,02EC018,PEFFERLAW BROOK NEAR UDORA,44.26753,-79.19461,WSC 20222 data set,44.26742126,-79.19476461,WSC 20222 data set,44.26742126,-79.195,-999.0,-999.0,,343.421689,HYDAT gross drainage area,347.0,HYDAT effective drainage area,,yes,WSC 2022 data set,346.958,0.96668534,,high,,2011-01-01 01:00:00,2023-01-02 23:00:00,596,1987-03-01 00:00:00,2021-12-31 00:00:00,25,EST,0,7,meso-scale
CAN,02ED003,NOTTAWASAGA RIVER NEAR BAXTER,44.24981,-79.82142,WSC 20222 data set,44.24990333,-79.82169871,WSC 20222 data set,44.24990333,-79.82166667,-999.0,-999.0,,1268.694106,HYDAT gross drainage area,1230.0,HYDAT effective drainage area,,yes,WSC 2022 data set,1229.58,0.95933914,,high,"CAN_02ED003 shares part of its upstream area with gauges CAN_02ED101, CAN_02ED102, CAN_02ED026.",2011-01-01 01:00:00,2023-01-02 23:00:00,1363,1950-01-01 00:00:00,2022-12-31 00:00:00,0,EST,0,30,macro-scale
CAN,02ED007,COLDWATER RIVER AT COLDWATER,44.70719,-79.64375,WSC 20222 data set,44.70728418,-79.64372299,WSC 20222 data set,44.70728418,-79.64333333,-999.0,-999.0,,173.5755154,HYDAT gross drainage area,168.0,HYDAT effective drainage area,,yes,WSC 2022 data set,167.838,0.929344742,,high,,2011-01-01 01:00:00,2023-01-02 23:00:00,155,1965-07-01 00:00:00,2022-12-31 00:00:00,20,EST,0,5,meso-scale
CAN,02ED013,WYE RIVER NEAR WYEVALE,44.64978,-79.90375,WSC 20222 data set,44.64996358,-79.90377494,WSC 20222 data set,44.65,-79.90377494,-999.0,-999.0,,129.0247713,HYDAT gross drainage area,121.0,HYDAT effective drainage area,,yes,WSC 2022 data set,123.008,0.899765433,,medium,"Very flat region, difference with reference shape due to DEM (mistakenly?) connecting rivers across a road",2010-12-31 20:00:00,2023-01-02 23:00:00,1879,1987-01-01 00:00:00,2021-12-31 00:00:00,0,EST,0,3,meso-scale
CAN,02ED015,MAD RIVER AT AVENING,44.30736,-80.07203,WSC 20222 data set,44.30699217,-80.07213604,WSC 20222 data set,44.3075,-80.07213604,-999.0,-999.0,,243.3278353,HYDAT gross drainage area,244.0,HYDAT effective drainage area,,yes,WSC 2022 data set,244.673,0.968374354,,high,,2011-01-01 01:00:00,2023-01-02 23:00:00,1436,1988-06-01 00:00:00,2022-12-31 00:00:00,2,EST,0,3,meso-scale
CAN,02ED017,HOGG CREEK NEAR VICTORIA HARBOUR,44.72606,-79.77897,WSC 20222 data set,44.72610066,-79.7784824,WSC 20222 data set,44.72583333,-79.7784824,-999.0,-999.0,,59.1858618,HYDAT gross drainage area,65.19999695,HYDAT effective drainage area,,yes,WSC 2022 data set,58.8897,0.968341866,,high,,2011-01-01 01:00:00,2023-01-02 23:00:00,9,1988-06-01 00:00:00,2020-12-31 00:00:00,21,EST,1,1,headwater
CAN,02ED024,NORTH RIVER AT THE FALLS,44.76767,-79.57828,WSC 20222 data set,44.7675736,-79.57824097,WSC 20222 data set,44.76707395,-79.57874062,-999.0,-999.0,,246.8015159,HYDAT gross drainage area,244.0,HYDAT effective drainage area,,yes,WSC 2022 data set,244.097,0.972550121,,high,,2011-01-01 01:00:00,2023-01-02 23:00:00,142,1988-08-01 00:00:00,2021-12-31 00:00:00,2,EST,0,7,meso-scale
CAN,02ED026,NOTTAWASAGA RIVER AT HOCKLEY,44.02475,-79.96989,WSC 20222 data set,44.02458756,-79.96979548,WSC 20222 data set,44.02447937,-79.96968729,-999.0,-999.0,,176.2606276,HYDAT gross drainage area,176.0,HYDAT effective drainage area,,yes,WSC 2022 data set,175.196,0.967437655,,high,"CAN_02ED026 shares part of its upstream area with gauges CAN_02ED003, CAN_02ED101.",2010-12-31 19:00:00,2023-01-02 23:00:00,214,1989-09-01 00:00:00,2022-12-31 00:00:00,31,EST,0,3,meso-scale
CAN,02ED101,NOTTAWASAGA RIVER NEAR ALLISTON,44.11058,-79.89028,WSC 20222 data set,44.11099701,-79.89031845,WSC 20222 data set,44.11083333,-79.89031845,-999.0,-999.0,,327.6246408,HYDAT gross drainage area,328.0,HYDAT effective drainage area,,yes,WSC 2022 data set,328.767,0.978162445,,high,"CAN_02ED101 shares part of its upstream area with gauges CAN_02ED003, CAN_02ED026.",2011-01-01 01:00:00,2023-01-02 23:00:00,868,1967-10-01 00:00:00,2022-12-31 00:00:00,66,EST,0,6,meso-scale
CAN,02ED102,BOYNE RIVER AT EARL ROWE PARK,44.1525,-79.89664,WSC 20222 data set,44.15283269,-79.89669493,WSC 20222 data set,44.15306888,-79.89693112,-999.0,-999.0,,218.5325058,HYDAT gross drainage area,216.0,HYDAT effective drainage area,,yes,WSC 2022 data set,217.213,0.963876597,,high,CAN_02ED102 shares part of its upstream area with gauge CAN_02ED003.,2010-12-31 19:00:00,2023-01-02 23:00:00,15,1967-10-01 00:00:00,2022-12-31 00:00:00,61,EST,0,3,meso-scale
CAN,02FA002,STOKES RIVER NEAR FERNDALE,45.03697,-81.33636,WSC 20222 data set,45.03719871,-81.33577028,WSC 20222 data set,45.03719871,-81.33583333,-999.0,-999.0,,49.65331579,HYDAT gross drainage area,50.5,HYDAT effective drainage area,,yes,WSC 2022 data set,62.0838,0.768444121,,medium,"Very flat region, difference with reference shape likely explained by DEM differences",2011-01-01 01:00:00,2023-01-02 23:00:00,117,1976-01-01 00:00:00,2022-12-31 00:00:00,0,EST,1,1,headwater
CAN,02FA004,SAUBLE RIVER AT ALLENFORD,44.53553,-81.17769,WSC 20222 data set,44.53529181,-81.17765047,WSC 20222 data set,44.535,-81.17765047,-999.0,-999.0,,312.3550832,HYDAT gross drainage area,312.0,HYDAT effective drainage area,,yes,WSC 2022 data set,312.504,0.977497217,,high,,2010-12-31 20:00:00,2023-01-02 23:00:00,72,1987-01-01 00:00:00,2022-12-31 00:00:00,8,EST,0,7,meso-scale
CAN,02FB007,SYDENHAM RIVER NEAR OWEN SOUND,44.52225,-80.93019,WSC 20222 data set,44.52223208,-80.93082558,WSC 20222 data set,44.52236216,-80.93069549,-999.0,-999.0,,178.1800877,HYDAT gross drainage area,183.0,HYDAT effective drainage area,,yes,WSC 2022 data set,187.244,0.916446181,,high,,2010-12-31 20:00:00,2023-01-02 23:00:00,5,1950-01-01 00:00:00,2021-12-31 00:00:00,0,EST,0,5,meso-scale
CAN,02FB010,BIGHEAD RIVER NEAR MEAFORD,44.57017,-80.6485,WSC 20222 data set,44.56995933,-80.64872341,WSC 20222 data set,44.57020129,-80.64896537,-999.0,-999.0,,302.8735444,HYDAT gross drainage area,298.0,HYDAT effective drainage area,,yes,WSC 2022 data set,292.94,0.936370975,,high,,2010-12-31 20:00:00,2023-01-02 23:00:00,168,1957-04-01 00:00:00,2021-12-31 00:00:00,16,EST,0,7,meso-scale
CAN,02FC011,CARRICK CREEK NEAR CARLSRUHE,44.11339,-81.01925,WSC 20222 data set,44.11330988,-81.01920193,WSC 20222 data set,44.11330988,-81.01916667,-999.0,-999.0,,158.3804062,HYDAT gross drainage area,156.0,HYDAT effective drainage area,,yes,WSC 2022 data set,157.022,0.953666968,,high,,2010-12-31 20:00:00,2023-01-02 23:00:00,6,1953-10-01 00:00:00,2021-12-31 00:00:00,49,EST,0,5,meso-scale
CAN,02FC016,SAUGEEN RIVER ABOVE DURHAM,44.18542,-80.78747,WSC 20222 data set,44.18568565,-80.78764013,WSC 20222 data set,44.18583333,-80.78764013,-999.0,-999.0,,312.6274405,HYDAT gross drainage area,329.0,HYDAT effective drainage area,,yes,WSC 2022 data set,311.103,0.963814593,,high,,2011-01-01 01:00:00,2023-01-02 23:00:00,12,1976-12-01 00:00:00,2021-12-31 00:00:00,54,EST,0,7,meso-scale
CAN,02FC017,BEATTY SAUGEEN RIVER NEAR HOLSTEIN,44.09047,-80.74194,WSC 20222 data set,44.09025885,-80.74190647,WSC 20222 data set,44.09042619,-80.74207381,-999.0,-999.0,,50.30904002,HYDAT gross drainage area,50.70000076,HYDAT effective drainage area,,yes,WSC 2022 data set,48.726,0.876065207,,high,"Very flat region, difference with reference shape likely explained by DEM differences",2011-01-01 01:00:00,2023-01-02 23:00:00,0,1985-12-01 00:00:00,2022-12-31 00:00:00,11,EST,1,1,headwater
CAN,02FD002,LUCKNOW RIVER AT LUCKNOW,43.96528,-81.51344,WSC 20222 data set,43.96541166,-81.51343801,WSC 20222 data set,43.96557016,-81.51359651,-999.0,-999.0,,67.54353473,HYDAT gross drainage area,54.90000153,HYDAT effective drainage area,,yes,WSC 2022 data set,69.3081,0.91346228,,high,,2011-01-01 01:00:00,2023-01-02 23:00:00,0,1979-12-01 00:00:00,2021-12-31 00:00:00,23,EST,1,1,headwater
CAN,02FE008,MIDDLE MAITLAND RIVER NEAR BELGRAVE,43.81289,-81.30689,WSC 20222 data set,43.81271834,-81.30737345,WSC 20222 data set,43.8125,-81.30666667,-999.0,-999.0,,645.1341962,HYDAT gross drainage area,645.0,HYDAT effective drainage area,,yes,WSC 2022 data set,646.11,0.97957306,,high,CAN_02FE008 shares part of its upstream area with gauge CAN_02FE013.,2011-01-01 01:00:00,2023-01-02 23:00:00,720,1967-10-01 00:00:00,2021-12-31 00:00:00,29,EST,0,16,meso-scale
CAN,02FE009,SOUTH MAITLAND RIVER AT SUMMERHILL,43.68436,-81.54117,WSC 20222 data set,43.68454971,-81.54105907,WSC 20222 data set,43.685,-81.54105907,-999.0,-999.0,,370.1628466,HYDAT gross drainage area,371.0,HYDAT effective drainage area,,yes,WSC 2022 data set,371.567,0.986101876,,high,,2010-12-31 20:00:00,2023-01-02 23:00:00,2674,1967-10-01 00:00:00,2021-12-31 00:00:00,0,EST,0,7,meso-scale
CAN,02FE011,MAITLAND RIVER NEAR HARRISTON,43.90381,-80.89261,WSC 20222 data set,43.90406254,-80.89289087,WSC 20222 data set,43.90391917,-80.8927475,-999.0,-999.0,,114.1095228,HYDAT gross drainage area,112.0,HYDAT effective drainage area,,yes,WSC 2022 data set,114.06,0.956340263,,high,,2011-01-01 01:00:00,2023-01-02 23:00:00,931,1981-07-01 00:00:00,2022-12-31 00:00:00,55,EST,0,3,meso-scale
CAN,02FE013,MIDDLE MAITLAND RIVER ABOVE ETHEL,43.71839,-81.12464,WSC 20222 data set,43.71815331,-81.12469457,WSC 20222 data set,43.71833333,-81.12469457,-999.0,-999.0,,417.7947722,HYDAT gross drainage area,416.0,HYDAT effective drainage area,,yes,WSC 2022 data set,417.535,0.977551202,,high,CAN_02FE013 shares part of its upstream area with gauge CAN_02FE008.,2011-01-01 01:00:00,2023-01-02 23:00:00,81,1983-10-01 00:00:00,2021-12-31 00:00:00,55,EST,0,13,meso-scale
CAN,02FE014,BLYTH BROOK BELOW BLYTH,43.76033,-81.46319,WSC 20222 data set,43.76032613,-81.46313087,WSC 20222 data set,43.76,-81.46313087,-999.0,-999.0,,77.31549267,HYDAT gross drainage area,74.69999695,HYDAT effective drainage area,,yes,WSC 2022 data set,74.529,0.940493185,,high,,2011-01-01 01:00:00,2023-01-02 23:00:00,66,1984-11-01 00:00:00,2021-12-31 00:00:00,37,EST,1,1,headwater
CAN,02FF007,BAYFIELD RIVER NEAR VARNA,43.55125,-81.58953,WSC 20222 data set,43.55072786,-81.58957008,WSC 20222 data set,43.55083333,-81.58957008,-999.0,-999.0,,463.3429214,HYDAT gross drainage area,460.0,HYDAT effective drainage area,,yes,WSC 2022 data set,459.704,0.975003737,,high,,2010-12-31 20:00:00,2023-01-02 23:00:00,3,1966-10-01 00:00:00,2022-12-31 00:00:00,20,EST,0,9,meso-scale
CAN,02FF008,PARKHILL CREEK ABOVE PARKHILL RESERVOIR,43.16413,-81.63151,WSC 20222 data set,43.16398193,-81.63114351,WSC 20222 data set,43.16433587,-81.63149746,-999.0,-999.0,,111.7496142,HYDAT gross drainage area,113.0,HYDAT effective drainage area,,yes,WSC 2022 data set,112.209,0.96404963,,high,,2010-12-31 20:00:00,2023-01-02 23:00:00,533,1973-02-01 00:00:00,2021-12-31 00:00:00,55,EST,1,1,headwater
CAN,02GA010,NITH RIVER NEAR CANNING,43.18972,-80.45503,WSC 20222 data set,43.18989318,-80.45553263,WSC 20222 data set,43.18926361,-80.45490306,-999.0,-999.0,,1000.566578,HYDAT gross drainage area,1030.0,HYDAT effective drainage area,,yes,WSC 2022 data set,1035.42,0.950776285,,high,"CAN_02GA010 shares part of its upstream area with gauges CAN_02GA018, CAN_02GA043, CAN_02GA038.",2010-12-31 20:00:00,2023-01-02 23:00:00,10,1950-01-01 00:00:00,2022-12-31 00:00:00,30,EST,0,26,macro-scale
CAN,02GA018,NITH RIVER AT NEW HAMBURG,43.37722,-80.71081,WSC 20222 data set,43.37678855,-80.71123177,WSC 20222 data set,43.37692682,-80.71109349,-999.0,-999.0,,528.1012289,HYDAT gross drainage area,544.0,HYDAT effective drainage area,,yes,WSC 2022 data set,542.119,0.959253644,,high,"CAN_02GA018 shares part of its upstream area with gauges CAN_02GA010, CAN_02GA043, CAN_02GA038.",2010-12-31 19:00:00,2023-01-02 23:00:00,15,1950-04-01 00:00:00,2022-12-31 00:00:00,57,EST,0,16,meso-scale
CAN,02GA038,NITH RIVER ABOVE NITHBURG,43.48389,-80.835,WSC 20222 data set,43.48389255,-80.83497604,WSC 20222 data set,43.48389255,-80.835,-999.0,-999.0,,305.3835042,HYDAT gross drainage area,326.0,HYDAT effective drainage area,,yes,WSC 2022 data set,317.508,0.941716123,,high,"CAN_02GA038 shares part of its upstream area with gauges CAN_02GA010, CAN_02GA018.",2010-12-31 20:00:00,2023-01-02 23:00:00,9,1972-02-01 00:00:00,2022-12-31 00:00:00,18,EST,0,9,meso-scale
CAN,02GA041,GRAND RIVER NEAR DUNDALK,44.14003,-80.3627,WSC 20222 data set,44.14035566,-80.36297234,WSC 20222 data set,44.13994166,-80.36255834,-999.0,-999.0,,69.29755012,HYDAT gross drainage area,66.5,HYDAT effective drainage area,,yes,WSC 2022 data set,67.9959,0.938968169,,high,,2010-12-31 20:00:00,2023-01-02 23:00:00,17,1984-09-01 00:00:00,2021-12-31 00:00:00,11,EST,0,3,meso-scale
CAN,02GA043,HUNSBURGER CREEK NEAR WILMOT CENTRE,43.36447,-80.63261,WSC 20222 data set,43.36443843,-80.6329607,WSC 20222 data set,43.36166667,-80.64916667,43.36443843,-80.6329607,yes,13.94183516,HYDAT gross drainage area,14.89999962,HYDAT effective drainage area,,yes,WSC 2022 data set,13.1535,0.910209241,gauge is subbasin along MERIT main river stem,high,"CAN_02GA043 shares part of its upstream area with gauges CAN_02GA010, CAN_02GA018.",2010-12-31 20:00:00,2023-01-02 23:00:00,1,1993-04-01 00:00:00,2022-12-31 00:00:00,29,EST,1,1,headwater
CAN,02GC002,KETTLE CREEK AT ST. THOMAS,42.77769,-81.214,WSC 20222 data set,42.7776934,-81.21360035,WSC 20222 data set,42.7776934,-81.21333333,-999.0,-999.0,,317.0593748,HYDAT gross drainage area,331.0,HYDAT effective drainage area,,yes,WSC 2022 data set,330.844,0.943119052,,high,"CAN_02GC002 shares part of its upstream area with gauges CAN_02GC029, CAN_02GC031.",2011-01-01 01:00:00,2023-01-02 23:00:00,328,1957-03-01 00:00:00,2022-12-31 00:00:00,106,EST,0,7,meso-scale
CAN,02GC010,BIG OTTER CREEK AT TILLSONBURG,42.85731,-80.72358,WSC 20222 data set,42.85721327,-80.72333779,WSC 20222 data set,42.85693774,-80.72306226,-999.0,-999.0,,318.8004054,HYDAT gross drainage area,354.0,HYDAT effective drainage area,,yes,WSC 2022 data set,353.568,0.879674465,,high,"Very flat region, difference with reference shape likely explained by DEM differences",2010-12-31 19:00:00,2023-01-02 23:00:00,7,1960-09-01 00:00:00,2022-12-31 00:00:00,13,EST,0,5,meso-scale
CAN,02GC018,CATFISH CREEK NEAR SPARTA,42.74608,-81.05694,WSC 20222 data set,42.74616335,-81.05723484,WSC 20222 data set,42.74616335,-81.0575,-999.0,-999.0,,289.084029,HYDAT gross drainage area,295.0,HYDAT effective drainage area,,yes,WSC 2022 data set,297.015,0.964803795,,high,CAN_02GC018 shares part of its upstream area with gauge CAN_02GC030.,2011-01-01 01:00:00,2023-01-02 23:00:00,1095,1964-07-01 00:00:00,2022-12-31 00:00:00,67,EST,0,12,meso-scale
CAN,02GC021,VENISON CREEK NEAR WALSINGHAM,42.65336,-80.54844,WSC 20222 data set,42.65330111,-80.54851815,WSC 20222 data set,42.65333333,-80.54851815,-999.0,-999.0,,78.88640647,HYDAT gross drainage area,68.40000153,HYDAT effective drainage area,,yes,WSC 2022 data set,92.3976,0.778837674,,medium,"Very flat region, difference with reference shape likely explained by DEM differences",2010-12-31 19:00:00,2023-01-02 23:00:00,40151,1966-10-01 00:00:00,2022-12-31 00:00:00,224,EST,1,1,headwater
CAN,02GC029,KETTLE CREEK ABOVE ST. THOMAS,42.83519,-81.13472,WSC 20222 data set,42.83526973,-81.13452004,WSC 20222 data set,42.83537484,-81.13462516,-999.0,-999.0,,134.5073044,HYDAT gross drainage area,134.0,HYDAT effective drainage area,,yes,WSC 2022 data set,133.61,0.971489775,,high,CAN_02GC029 shares part of its upstream area with gauge CAN_02GC002.,2011-01-01 01:00:00,2023-01-02 23:00:00,14,1985-11-01 00:00:00,2022-12-31 00:00:00,0,EST,0,3,meso-scale
CAN,02GC030,CATFISH CREEK AT AYLMER,42.77375,-80.98267,WSC 20222 data set,42.7736347,-80.98285724,WSC 20222 data set,42.77333333,-80.98285724,-999.0,-999.0,,126.4679904,HYDAT gross drainage area,127.0,HYDAT effective drainage area,,yes,WSC 2022 data set,126.663,0.9729453,,high,CAN_02GC030 shares part of its upstream area with gauge CAN_02GC018.,2010-12-31 19:00:00,2023-01-02 23:00:00,5,1987-01-01 00:00:00,2022-12-31 00:00:00,21,EST,0,5,meso-scale
CAN,02GC031,DODD CREEK BELOW PAYNES MILLS,42.78739,-81.2675,WSC 20222 data set,42.78715458,-81.26715508,WSC 20222 data set,42.78791641,-81.26791692,-999.0,-999.0,,80.86035802,HYDAT gross drainage area,99.59999847,HYDAT effective drainage area,,yes,WSC 2022 data set,97.3728,0.80796575,,medium,"Very flat region, difference with reference shape likely explained by DEM differences; CAN_02GC031 shares part of its upstream area with gauge CAN_02GC002.",2011-01-01 01:00:00,2023-01-02 23:00:00,1,1987-12-01 00:00:00,2022-12-31 00:00:00,22,EST,1,1,headwater
CAN,02GD004,MIDDLE THAMES RIVER AT THAMESFORD,43.05911,-80.99486,WSC 20222 data set,43.05938028,-80.99473815,WSC 20222 data set,43.05955922,-80.99455922,-999.0,-999.0,,294.0564969,HYDAT gross drainage area,306.0,HYDAT effective drainage area,,yes,WSC 2022 data set,260.411,0.857291471,,medium,"Very flat region, difference with reference shape likely explained by DEM differences",2010-12-31 20:00:00,2023-01-02 23:00:00,11,1950-01-01 00:00:00,2022-12-31 00:00:00,0,EST,0,7,meso-scale
CAN,02GD010,FISH CREEK NEAR PROSPECT HILL,43.22047,-81.23681,WSC 20222 data set,43.22051262,-81.23660823,WSC 20222 data set,43.22064376,-81.23647709,-999.0,-999.0,,148.5804907,HYDAT gross drainage area,144.0,HYDAT effective drainage area,,yes,WSC 2022 data set,145.599,0.937575603,,high,,2011-01-01 01:00:00,2023-01-02 23:00:00,17,1950-01-01 00:00:00,2022-12-31 00:00:00,106,EST,1,1,headwater
CAN,02GD019,TROUT CREEK NEAR FAIRVIEW,43.29558,-80.97303,WSC 20222 data set,43.29586708,-80.97304533,WSC 20222 data set,43.29599421,-80.97317246,-999.0,-999.0,,57.04728424,HYDAT gross drainage area,36.0,HYDAT effective drainage area,,yes,WSC 2022 data set,46.2348,0.781402066,,medium,"Very flat region, difference with reference shape likely explained by DEM differences",2010-12-31 20:00:00,2023-01-02 23:00:00,3,1966-06-01 00:00:00,2022-12-31 00:00:00,27,EST,1,1,headwater
CAN,02GD021,THAMES RIVER AT INNERKIP,43.21531,-80.69186,WSC 20222 data set,43.21518178,-80.69171754,WSC 20222 data set,43.21583333,-80.69171754,-999.0,-999.0,,141.7988937,HYDAT gross drainage area,149.0,HYDAT effective drainage area,,yes,WSC 2022 data set,151.232,0.915093515,,high,,2011-01-01 01:00:00,2023-01-02 23:00:00,4,1978-06-01 00:00:00,2021-12-31 00:00:00,27,EST,0,3,meso-scale
CAN,02GE007,MCGREGOR CREEK NEAR CHATHAM,42.3835,-82.09506,WSC 20222 data set,42.3833644,-82.09478089,WSC 20222 data set,42.38333333,-82.09478089,-999.0,-999.0,,201.3135521,HYDAT gross drainage area,204.0,HYDAT effective drainage area,,yes,WSC 2022 data set,205.243,0.947009601,,high,,2010-12-31 20:00:00,2023-01-02 23:00:00,19286,1977-04-01 00:00:00,2022-12-31 00:00:00,51,EST,0,5,meso-scale
CAN,02GG002,SYDENHAM RIVER NEAR ALVINSTON,42.83081,-81.85172,WSC 20222 data set,42.83082033,-81.85134529,WSC 20222 data set,42.83083333,-81.85134529,-999.0,-999.0,,701.0779181,HYDAT gross drainage area,701.0,HYDAT effective drainage area,,yes,WSC 2022 data set,701.815,0.982866452,,high,"CAN_02GG002 shares part of its upstream area with gauges CAN_02GG003, CAN_02GG005.",2011-01-01 01:00:00,2023-01-02 23:00:00,7,1950-01-01 00:00:00,2022-12-31 00:00:00,0,EST,0,20,meso-scale
CAN,02GG003,SYDENHAM RIVER AT FLORENCE,42.65061,-82.00839,WSC 20222 data set,42.6504889,-82.00874878,WSC 20222 data set,42.6504889,-82.00833333,-999.0,-999.0,,1069.29789,HYDAT gross drainage area,1150.0,HYDAT effective drainage area,,yes,WSC 2022 data set,1151.3,0.913015562,,high,"CAN_02GG003 shares part of its upstream area with gauges CAN_02GG002, CAN_02GG005.",2011-01-01 01:00:00,2023-01-02 23:00:00,8,1984-01-01 00:00:00,2022-12-31 00:00:00,0,EST,0,29,macro-scale
CAN,02GG005,SYDENHAM RIVER AT STRATHROY,42.95886,-81.62714,WSC 20222 data set,42.95899758,-81.62708858,WSC 20222 data set,42.95916667,-81.62708858,-999.0,-999.0,,170.9790951,HYDAT gross drainage area,171.0,HYDAT effective drainage area,,yes,WSC 2022 data set,172.534,0.969303946,,high,"CAN_02GG005 shares part of its upstream area with gauges CAN_02GG002, CAN_02GG003.",2010-12-31 20:00:00,2023-01-02 23:00:00,3,1966-05-01 00:00:00,2022-12-31 00:00:00,24,EST,0,3,meso-scale
CAN,02GG006,BEAR CREEK NEAR PETROLIA,42.90583,-82.11911,WSC 20222 data set,42.90576276,-82.11894822,WSC 20222 data set,42.90549061,-82.11867606,-999.0,-999.0,,253.2819467,HYDAT gross drainage area,249.0,HYDAT effective drainage area,,yes,WSC 2022 data set,244.317,0.937893413,,high,CAN_02GG006 shares part of its upstream area with gauge CAN_02GG009.,2010-12-31 20:00:00,2023-01-02 23:00:00,4,1966-07-01 00:00:00,2021-12-31 00:00:00,14,EST,1,1,headwater
CAN,02GG009,BEAR CREEK BELOW BRIGDEN,42.81203,-82.29842,WSC 20222 data set,42.81172878,-82.29882608,WSC 20222 data set,42.81166667,-82.29916667,-999.0,-999.0,,531.2892519,HYDAT gross drainage area,536.0,HYDAT effective drainage area,,yes,WSC 2022 data set,526.862,0.959530935,,high,CAN_02GG009 shares part of its upstream area with gauge CAN_02GG006.,2010-12-31 20:00:00,2023-01-02 23:00:00,65,1981-04-01 00:00:00,2021-12-31 00:00:00,29,EST,0,10,meso-scale
CAN,02GH002,RUSCOM RIVER NEAR RUSCOM STATION,42.2115,-82.62914,WSC 20222 data set,42.21137805,-82.62940013,WSC 20222 data set,42.21140563,-82.6294277,-999.0,-999.0,,108.1268516,HYDAT gross drainage area,125.0,HYDAT effective drainage area,,yes,WSC 2022 data set,112.683,0.876362074,,medium,"Very flat region, difference with reference shape likely explained by DEM differences",2010-12-31 19:00:00,2023-01-02 23:00:00,63,1971-08-01 00:00:00,2022-12-31 00:00:00,19,EST,0,3,meso-scale
CAN,02HA006,TWENTY MILE CREEK AT BALLS FALLS,43.13347,-79.38325,WSC 20222 data set,43.13309701,-79.38354836,WSC 20222 data set,43.13352432,-79.38397568,-999.0,-999.0,,296.6270649,HYDAT gross drainage area,292.0,HYDAT effective drainage area,,yes,WSC 2022 data set,290.24,0.949832646,,high,CAN_02HA006 shares part of its upstream area with gauge CAN_02HA020.,2010-12-31 20:00:00,2023-01-02 23:00:00,1358,1957-03-01 00:00:00,2021-12-31 00:00:00,62,EST,0,6,meso-scale
CAN,02HA020,TWENTY MILE CREEK ABOVE SMITHVILLE,43.11564,-79.56619,WSC 20222 data set,43.11554308,-79.56641665,WSC 20222 data set,43.1155632,-79.56639653,-999.0,-999.0,,162.6083473,HYDAT gross drainage area,166.0,HYDAT effective drainage area,,yes,WSC 2022 data set,164.228,0.960376049,,high,CAN_02HA020 shares part of its upstream area with gauge CAN_02HA006.,2010-12-31 20:00:00,2023-01-02 23:00:00,7752,1987-01-01 00:00:00,2021-12-31 00:00:00,339,EST,1,1,headwater
CAN,02HB012,GRINDSTONE CREEK NEAR ALDERSHOT,43.30064,-79.869,WSC 20222 data set,43.30053352,-79.86886427,WSC 20222 data set,43.30053352,-79.86916667,-999.0,-999.0,,73.34712243,HYDAT gross drainage area,77.90000153,HYDAT effective drainage area,,yes,WSC 2022 data set,80.145,0.856215141,,medium,"Very flat region, difference with reference shape likely explained by DEM differences",2011-01-01 00:00:00,2023-01-02 23:00:00,1181,1965-10-01 00:00:00,2021-12-31 00:00:00,12,EST,1,1,headwater
CAN,02HB022,BRONTE CREEK AT CARLISLE,43.38886,-79.98811,WSC 20222 data set,43.38909713,-79.98799722,WSC 20222 data set,43.38938051,-79.98771384,-999.0,-999.0,,56.79391757,HYDAT gross drainage area,123.0,HYDAT effective drainage area,,yes,WSC 2022 data set,123.605,0.434307733,,low,"Very flat region, difference with reference shape likely explained by DEM differences",2010-12-31 20:00:00,2023-01-02 23:00:00,161,1989-07-01 00:00:00,2021-12-31 00:00:00,17,EST,1,1,headwater
CAN,02HB023,SPENCER CREEK AT HIGHWAY NO. 5,43.28292,-80.05281,WSC 20222 data set,43.28298074,-80.05296122,WSC 20222 data set,43.28297098,-80.05297098,-999.0,-999.0,,198.0201636,HYDAT gross drainage area,126.0,HYDAT effective drainage area,,yes,WSC 2022 data set,126.293,0.612323737,,low,"Very flat region, difference with reference shape due to DEM (mistakenly?) connecting rivers across a road",2011-01-01 01:00:00,2023-01-02 23:00:00,32,1987-02-01 00:00:00,2021-12-31 00:00:00,33,EST,0,3,meso-scale
CAN,02HC019,DUFFINS CREEK ABOVE PICKERING,43.89128,-79.05928,WSC 20222 data set,43.89158064,-79.0591038,WSC 20222 data set,43.89159222,-79.05909222,-999.0,-999.0,,87.48890323,HYDAT gross drainage area,93.5,HYDAT effective drainage area,,yes,WSC 2022 data set,87.0246,0.965976375,,high,CAN_02HC019 shares part of its upstream area with gauge CAN_02HC049.,2012-09-12 14:00:00,2023-01-02 23:00:00,142,1960-07-01 00:00:00,2021-12-31 00:00:00,107,EST,0,3,meso-scale
CAN,02HC023,COLD CREEK NEAR BOLTON,43.888,-79.71753,WSC 20222 data set,43.88792239,-79.71757978,WSC 20222 data set,43.8875,-79.71666667,43.88825,-79.71834,yes,63.2630229,HYDAT gross drainage area,62.20000076,HYDAT effective drainage area,,yes,WSC 2022 data set,63.6147,0.970546511,gauge is subbasin along MERIT main river stem,high,CAN_02HC023 shares part of its upstream area with gauge CAN_02HC025.,2011-01-01 01:00:00,2023-01-02 23:00:00,3,1962-10-01 00:00:00,2021-12-31 00:00:00,42,EST,0,3,meso-scale
CAN,02HC025,HUMBER RIVER AT ELDER MILLS,43.81131,-79.62758,WSC 20222 data set,43.81151412,-79.62762437,WSC 20222 data set,43.81151412,-79.6275,-999.0,-999.0,,291.3898058,HYDAT gross drainage area,296.0,HYDAT effective drainage area,,yes,WSC 2022 data set,296.027,0.970958414,,high,"CAN_02HC025 shares part of its upstream area with gauges CAN_02HC047, CAN_02HC023.",2011-01-01 01:00:00,2023-01-02 23:00:00,49,1962-09-01 00:00:00,2022-12-31 00:00:00,60,EST,0,11,meso-scale
CAN,02HC038,WEST DUFFINS CREEK ABOVE GREEN RIVER,43.91575,-79.17953,WSC 20222 data set,43.91585999,-79.17965851,WSC 20222 data set,43.91560074,-79.17939926,-999.0,-999.0,,60.16784981,HYDAT gross drainage area,52.0,HYDAT effective drainage area,,yes,WSC 2022 data set,62.0316,0.934380368,,high,CAN_02HC038 shares part of its upstream area with gauge CAN_02HC049.,2011-01-01 01:00:00,2023-01-02 23:00:00,254,1974-03-01 00:00:00,2021-12-31 00:00:00,44,EST,1,1,headwater
CAN,02HC047,HUMBER RIVER NEAR PALGRAVE,43.9285,-79.823,WSC 20222 data set,43.92854858,-79.82294607,WSC 20222 data set,43.92833333,-79.82294607,-999.0,-999.0,,159.2963512,HYDAT gross drainage area,164.0,HYDAT effective drainage area,,yes,WSC 2022 data set,162.345,0.965672356,,high,CAN_02HC047 shares part of its upstream area with gauge CAN_02HC025.,2011-01-01 01:00:00,2023-01-02 23:00:00,25,1981-05-01 00:00:00,2022-12-31 00:00:00,29,EST,0,5,meso-scale
CAN,02HC049,DUFFINS CREEK AT AJAX,43.84889,-79.05611,WSC 20222 data set,43.84873414,-79.05604697,WSC 20222 data set,43.84833333,-79.05604697,-999.0,-999.0,,259.4208063,HYDAT gross drainage area,257.0,HYDAT effective drainage area,,yes,WSC 2022 data set,260.996,0.980041909,,high,"CAN_02HC049 shares part of its upstream area with gauges CAN_02HC019, CAN_02HC038.",2010-12-31 19:00:00,2023-01-02 23:00:00,306,1989-05-01 00:00:00,2022-12-31 00:00:00,30,EST,0,11,meso-scale
CAN,02HD009,WILMOT CREEK NEAR NEWCASTLE,43.93022,-78.61881,WSC 20222 data set,43.93022276,-78.61899263,WSC 20222 data set,43.93044103,-78.61877436,-999.0,-999.0,,81.37630817,HYDAT gross drainage area,80.69999695,HYDAT effective drainage area,,yes,WSC 2022 data set,78.8337,0.935423967,,high,,2010-12-31 19:00:00,2023-01-02 23:00:00,1390,1965-06-01 00:00:00,2021-12-31 00:00:00,32,EST,1,1,headwater
CAN,02HD012,GANARASKA RIVER ABOVE DALE,43.99094,-78.32819,WSC 20222 data set,43.99076479,-78.32835754,WSC 20222 data set,43.99037029,-78.32796304,-999.0,-999.0,,239.5795538,HYDAT gross drainage area,242.0,HYDAT effective drainage area,,yes,WSC 2022 data set,242.363,0.97513545,,high,,2011-01-01 01:00:00,2023-01-02 23:00:00,34,1976-11-01 00:00:00,2021-12-31 00:00:00,10,EST,0,5,meso-scale
CAN,02HJ001,JACKSON CREEK AT PETERBOROUGH,44.30278,-78.32139,WSC 20222 data set,44.30275634,-78.32119314,WSC 20222 data set,44.30239141,-78.32155807,-999.0,-999.0,,114.4461336,HYDAT gross drainage area,116.0,HYDAT effective drainage area,,yes,WSC 2022 data set,116.318,0.96879635,,high,,2010-12-31 19:00:00,2023-01-02 23:00:00,3,1962-05-01 00:00:00,2021-12-31 00:00:00,28,EST,0,3,meso-scale
CAN,02HK007,COLD CREEK AT ORLAND,44.13475,-77.78703,WSC 20222 data set,44.13478119,-77.78703424,WSC 20222 data set,44.135,-77.78703424,-999.0,-999.0,,161.1041236,HYDAT gross drainage area,161.0,HYDAT effective drainage area,,yes,WSC 2022 data set,160.52,0.966749994,,high,,2010-12-31 20:00:00,2023-01-02 23:00:00,0,1981-09-01 00:00:00,2021-12-31 00:00:00,23,EST,0,5,meso-scale
CAN,02HK008,RAWDON CREEK NEAR WEST HUNTINGDON,44.33834,-77.47731,WSC 20222 data set,44.33842012,-77.4774357,WSC 20222 data set,44.33842012,-77.4775,-999.0,-999.0,,90.52976955,HYDAT gross drainage area,93.0,HYDAT effective drainage area,,yes,WSC 2022 data set,90.9027,0.965725427,,high,,2010-12-31 20:00:00,2023-01-02 23:00:00,33,1982-09-01 00:00:00,2022-12-31 00:00:00,138,EST,1,1,headwater
CAN,02HL003,BLACK RIVER NEAR ACTINOLITE,44.5396,-77.36965,WSC 20222 data set,44.53951242,-77.36968616,WSC 20222 data set,44.53918262,-77.37001596,-999.0,-999.0,,421.4333974,HYDAT gross drainage area,429.0,HYDAT effective drainage area,,yes,WSC 2022 data set,433.189,0.950021233,,high,,2010-12-31 19:00:00,2023-01-02 23:00:00,12,1955-08-01 00:00:00,2022-12-31 00:00:00,0,EST,0,9,meso-scale
CAN,02HL004,SKOOTAMATTA RIVER NEAR ACTINOLITE,44.54957,-77.32813,WSC 20222 data set,44.54935627,-77.32836457,WSC 20222 data set,44.54927708,-77.32844375,-999.0,-999.0,,681.1831736,HYDAT gross drainage area,678.0,HYDAT effective drainage area,,yes,WSC 2022 data set,677.679,0.972661585,,high,,2011-01-01 01:00:00,2023-01-02 23:00:00,1,1955-07-01 00:00:00,2022-12-31 00:00:00,82,EST,0,17,meso-scale
CAN,02HL005,MOIRA RIVER NEAR DELORO,44.49973,-77.61836,WSC 20222 data set,44.49988642,-77.61821125,WSC 20222 data set,44.50083333,-77.61821125,-999.0,-999.0,,298.2800755,HYDAT gross drainage area,297.0,HYDAT effective drainage area,,yes,WSC 2022 data set,295.41,0.960171515,,high,,2011-01-01 01:00:00,2023-01-02 23:00:00,9,1965-08-01 00:00:00,2022-12-31 00:00:00,25,EST,0,5,meso-scale
CAN,02HM004,WILTON CREEK NEAR NAPANEE,44.23943,-76.84922,WSC 20222 data set,44.2393774,-76.84899832,WSC 20222 data set,44.23916667,-76.84916667,-999.0,-999.0,,107.4309067,HYDAT gross drainage area,105.0,HYDAT effective drainage area,,yes,WSC 2022 data set,107.494,0.941206407,,high,,2010-12-31 19:00:00,2023-01-02 23:00:00,47,1965-10-01 00:00:00,2022-12-31 00:00:00,21,EST,1,1,headwater
CAN,02HM005,COLLINS CREEK NEAR KINGSTON,44.25656,-76.61256,WSC 20222 data set,44.25660533,-76.61279723,WSC 20222 data set,44.25660533,-76.61333333,-999.0,-999.0,,163.8226572,HYDAT gross drainage area,160.0,HYDAT effective drainage area,,yes,WSC 2022 data set,161.609,0.958734861,,high,,2010-12-31 19:00:00,2023-01-02 23:00:00,29,1969-12-01 00:00:00,2021-12-31 00:00:00,7,EST,0,3,meso-scale
CAN,02JC008,BLANCHE RIVER ABOVE ENGLEHART,47.88914,-79.87931,WSC 20222 data set,47.89011474,-79.87976679,WSC 20222 data set,47.89,-79.88,-999.0,-999.0,,1787.315897,HYDAT gross drainage area,1780.0,HYDAT effective drainage area,,yes,WSC 2022 data set,1778.07,0.981993485,,high,,2010-12-31 20:00:00,2023-01-02 23:00:00,9470,1968-04-01 00:00:00,2021-12-31 00:00:00,216,EST,0,35,macro-scale
CAN,02KF016,MISSISSIPPI RIVER BELOW MARBLE LAKE,44.84317,-77.12006,WSC 20222 data set,44.84310534,-77.11997982,WSC 20222 data set,44.84333333,-77.11997982,-999.0,-999.0,,360.2177582,HYDAT gross drainage area,359.0,HYDAT effective drainage area,,yes,WSC 2022 data set,358.561,0.970470641,,high,,2010-12-31 19:00:00,2023-01-02 23:00:00,140,1988-02-01 00:00:00,2022-12-31 00:00:00,27,EST,0,11,meso-scale
CAN,02KF017,BUCKSHOT CREEK NEAR PLEVNA,44.96844,-76.96633,WSC 20222 data set,44.96838733,-76.96610103,WSC 20222 data set,44.96822649,-76.96594018,-999.0,-999.0,,146.6275325,HYDAT gross drainage area,152.0,HYDAT effective drainage area,,yes,WSC 2022 data set,151.557,0.934071058,,high,,2011-01-01 00:00:00,2023-01-02 23:00:00,311,1993-04-01 00:00:00,2022-12-31 00:00:00,77,EST,0,3,meso-scale
CAN,02LA007,JOCK RIVER NEAR RICHMOND,45.24942,-75.79061,WSC 20222 data set,45.24909914,-75.79122911,WSC 20222 data set,45.24916667,-75.79122911,-999.0,-999.0,,547.6591243,HYDAT gross drainage area,526.0,HYDAT effective drainage area,,yes,WSC 2022 data set,526.8,0.928934322,,high,,2011-01-01 01:00:00,2023-01-02 23:00:00,4,1969-12-01 00:00:00,2021-12-31 00:00:00,9,EST,0,13,meso-scale
CAN,02LB006,CASTOR RIVER AT RUSSELL,45.2625,-75.34378,WSC 20222 data set,45.26249751,-75.34363521,WSC 20222 data set,45.26249751,-75.34333333,-999.0,-999.0,,441.1546176,HYDAT gross drainage area,439.0,HYDAT effective drainage area,,yes,WSC 2022 data set,439.879,0.949862279,,high,CAN_02LB006 shares part of its upstream area with gauge CAN_02LB020.,2011-01-01 01:00:00,2023-01-02 23:00:00,3071,1950-01-01 00:00:00,2021-12-31 00:00:00,471,EST,0,10,meso-scale
CAN,02LB007,SOUTH NATION RIVER AT SPENCERVILLE,44.84225,-75.54442,WSC 20222 data set,44.84220812,-75.54454964,WSC 20222 data set,44.84216258,-75.54450409,-999.0,-999.0,,223.4512008,HYDAT gross drainage area,246.0,HYDAT effective drainage area,,yes,WSC 2022 data set,217.778,0.947023019,,high,,2010-12-31 19:00:00,2023-01-02 23:00:00,3199,1950-01-01 00:00:00,2021-12-31 00:00:00,71,EST,0,3,meso-scale
CAN,02LB008,BEAR BROOK NEAR BOURGET,45.426,-75.15322,WSC 20222 data set,45.42633314,-75.15345726,WSC 20222 data set,45.42656186,-75.15322853,-999.0,-999.0,,477.7526847,HYDAT gross drainage area,448.0,HYDAT effective drainage area,,yes,WSC 2022 data set,445.755,0.829854548,,medium,"Very flat region, difference with reference shape likely explained by DEM differences",2010-12-31 19:00:00,2023-01-02 23:00:00,1806,1950-03-01 00:00:00,2021-12-31 00:00:00,616,EST,0,9,meso-scale
CAN,02LB020,SOUTH CASTOR RIVER AT KENMORE,45.22833,-75.41272,WSC 20222 data set,45.22838567,-75.4123836,WSC 20222 data set,45.22838567,-75.4125,-999.0,-999.0,,188.8406669,HYDAT gross drainage area,185.0,HYDAT effective drainage area,,yes,WSC 2022 data set,185.624,0.91547607,,high,CAN_02LB020 shares part of its upstream area with gauge CAN_02LB006.,2011-01-01 01:00:00,2023-01-02 23:00:00,7,1978-09-01 00:00:00,2021-12-31 00:00:00,44,EST,0,3,meso-scale
CAN,02LB022,PAYNE RIVER NEAR BERWICK,45.19161,-75.10464,WSC 20222 data set,45.19159351,-75.10447206,WSC 20222 data set,45.19147739,-75.10435594,-999.0,-999.0,,142.8649753,HYDAT gross drainage area,152.0,HYDAT effective drainage area,,yes,WSC 2022 data set,144.31,0.945954139,,high,,2011-01-01 01:00:00,2023-01-02 23:00:00,0,1976-04-01 00:00:00,2021-12-31 00:00:00,25,EST,1,1,headwater
CAN,02MB006,LYN CREEK NEAR LYN,44.525,-75.80528,WSC 20222 data set,44.524936,-75.80522607,WSC 20222 data set,44.525,-75.805,-999.0,-999.0,,105.5206133,HYDAT gross drainage area,107.0,HYDAT effective drainage area,,yes,WSC 2022 data set,106.275,0.964476814,,high,,2010-12-31 19:00:00,2023-01-02 23:00:00,3,1970-09-01 00:00:00,2021-12-31 00:00:00,76,EST,0,3,meso-scale
CAN,02MC001,RAISIN RIVER NEAR WILLIAMSTOWN,45.15547,-74.63814,WSC 20222 data set,45.15564104,-74.63806553,WSC 20222 data set,45.15583333,-74.63806553,-999.0,-999.0,,370.0712551,HYDAT gross drainage area,404.0,HYDAT effective drainage area,,yes,WSC 2022 data set,364.875,0.963213347,,high,,2010-12-31 19:00:00,2023-01-02 23:00:00,4,1960-11-01 00:00:00,2021-12-31 00:00:00,0,EST,0,9,meso-scale
CAN,02MC026,RIVIERE BEAUDETTE NEAR GLEN NEVIS,45.27328,-74.49386,WSC 20222 data set,45.27342861,-74.49387373,WSC 20222 data set,45.27352744,-74.49397256,-999.0,-999.0,,134.068875,HYDAT gross drainage area,124.0,HYDAT effective drainage area,,yes,WSC 2022 data set,134.555,0.952107213,,high,,2010-12-31 19:00:00,2023-01-02 23:00:00,318,1983-08-01 00:00:00,2021-12-31 00:00:00,43,EST,1,1,headwater
CAN,02MC028,RIVIERE DELISLE NEAR ALEXANDRIA,45.32708,-74.64386,WSC 20222 data set,45.32707452,-74.64361464,WSC 20222 data set,45.32707452,-74.64333333,-999.0,-999.0,,83.7509425,HYDAT gross drainage area,85.40000153,HYDAT effective drainage area,,yes,WSC 2022 data set,85.4523,0.932030082,,high,,2010-12-31 19:00:00,2023-01-02 23:00:00,7,1985-05-01 00:00:00,2021-12-31 00:00:00,80,EST,1,1,headwater
CAN,02XA003,LITTLE MECATINA RIVER ABOVE LAC FOURMONT,52.22981,-61.31694,WSC 20222 data set,52.23069878,-61.31660479,WSC 20222 data set,52.23083333,-61.31660479,-999.0,-999.0,,4473.306641,HYDAT gross drainage area,4540.0,HYDAT effective drainage area,,yes,WSC 2022 data set,4509.36,0.976681656,,high,,2011-01-01 01:00:00,2023-01-02 23:00:00,4560,1978-05-01 00:00:00,2021-12-31 00:00:00,60,NST,0,105,macro-scale
CAN,02YA002,BARTLETTS RIVER NEAR ST. ANTHONY,51.44922,-55.64125,WSC 20222 data set,51.44915611,-55.64117007,WSC 20222 data set,-999.0,-999.0,51.44911,-55.64164,yes,11.0891845,HYDAT gross drainage area,33.59999847,HYDAT effective drainage area,,yes,WSC 2022 data set,33.6357,0.298436507,gauge is subbasin of MERIT headwater basin,medium,"Very flat region, difference with reference shape likely explained by DEM differences due to presence of lakes/potholes",2010-12-31 21:00:00,2023-01-02 23:00:00,252,1986-01-01 00:00:00,2020-12-31 00:00:00,0,NST,1,1,headwater
CAN,02YC001,TORRENT RIVER AT BRISTOL'S POOL,50.60747,-57.15161,WSC 20222 data set,50.60762131,-57.15164004,WSC 20222 data set,50.6071573,-57.15117603,-999.0,-999.0,,618.1508561,HYDAT gross drainage area,624.0,HYDAT effective drainage area,,yes,WSC 2022 data set,625.348,0.976839235,,high,,2010-12-31 21:00:00,2023-01-02 23:00:00,1061,1959-08-01 00:00:00,2021-12-31 00:00:00,0,NST,0,13,meso-scale
CAN,02YD002,NORTHEAST BROOK NEAR RODDICKTON,50.92442,-56.11169,WSC 20222 data set,50.9241437,-56.11151265,WSC 20222 data set,50.92464886,-56.11201781,-999.0,-999.0,,195.9499151,HYDAT gross drainage area,200.0,HYDAT effective drainage area,,yes,WSC 2022 data set,205.702,0.922110203,,high,,2010-12-31 21:00:00,2023-01-02 23:00:00,363,1980-01-01 00:00:00,2021-12-31 00:00:00,0,NST,0,3,meso-scale
CAN,02YE001,GREAVETT BROOK ABOVE PORTLAND CREEK POND,50.16231,-57.57753,WSC 20222 data set,50.16211401,-57.57747029,WSC 20222 data set,50.16190519,-57.57726147,-999.0,-999.0,,99.17040518,HYDAT gross drainage area,95.69999695,HYDAT effective drainage area,,yes,WSC 2022 data set,100.601,0.961308485,,high,,2010-12-31 21:00:00,2023-01-02 23:00:00,218,1984-01-01 00:00:00,2020-12-31 00:00:00,0,NST,1,1,headwater
CAN,02YG001,MAIN RIVER AT PARADISE POOL,49.81067,-57.15942,WSC 20222 data set,49.81119731,-57.16004844,WSC 20222 data set,49.8109911,-57.15984223,-999.0,-999.0,,631.0557895,HYDAT gross drainage area,627.0,HYDAT effective drainage area,,yes,WSC 2022 data set,632.285,0.9856901,,high,,2010-12-31 21:00:00,2023-01-02 23:00:00,180,1986-01-01 00:00:00,2021-12-31 00:00:00,0,NST,0,15,meso-scale
CAN,02YJ001,HARRYS RIVER BELOW HIGHWAY BRIDGE,48.57583,-58.36264,WSC 20222 data set,48.57616215,-58.36216047,WSC 20222 data set,48.57658418,-58.36258249,-999.0,-999.0,,636.6619944,HYDAT gross drainage area,640.0,HYDAT effective drainage area,,yes,WSC 2022 data set,641.863,0.98093257,,high,,2010-12-31 21:00:00,2023-01-02 23:00:00,476,1968-03-01 00:00:00,2020-12-31 00:00:00,7,NST,0,19,meso-scale
CAN,02YK002,LEWASEECHJEECH BROOK AT LITTLE GRAND LAKE,48.62203,-57.93311,WSC 20222 data set,48.62231281,-57.93348377,WSC 20222 data set,48.62191452,-57.93308548,-999.0,-999.0,,479.1454589,HYDAT gross drainage area,470.0,HYDAT effective drainage area,,yes,WSC 2022 data set,475.556,0.980465094,,high,,2010-12-31 21:00:00,2023-01-02 23:00:00,630,1952-11-01 00:00:00,2021-12-31 00:00:00,153,NST,0,11,meso-scale
CAN,02YK005,SHEFFIELD BROOK NEAR TRANS CANADA HIGHWAY,49.33828,-56.66789,WSC 20222 data set,49.33815273,-56.66794444,WSC 20222 data set,49.33833333,-56.66794444,-999.0,-999.0,,463.2100237,HYDAT gross drainage area,391.0,HYDAT effective drainage area,,yes,WSC 2022 data set,398.346,0.846059504,,medium,"Very flat region, difference with reference shape likely explained by DEM differences due to presence of lakes/potholes",2010-12-31 21:00:00,2023-01-02 23:00:00,1141,1972-06-01 00:00:00,2021-12-31 00:00:00,14,NST,0,9,meso-scale
CAN,02YK008,BOOT BROOK AT TRANS-CANADA HIGHWAY,49.26667,-57.104,WSC 20222 data set,49.26636714,-57.10385124,WSC 20222 data set,49.24666667,-57.125,49.26595,-57.10417,yes,17.67353575,HYDAT gross drainage area,20.39999962,HYDAT effective drainage area,,yes,WSC 2022 data set,19.458,0.8740044,gauge is subbasin of MERIT headwater basin,medium,"Very flat region, difference with reference shape likely explained by DEM differences due to presence of lakes/potholes",2010-12-31 21:00:00,2023-01-02 23:00:00,100,1985-02-01 00:00:00,2020-12-31 00:00:00,26,NST,1,1,headwater
CAN,02YL001,UPPER HUMBER RIVER NEAR REIDVILLE,49.24292,-57.36025,WSC 20222 data set,49.24235028,-57.35982915,WSC 20222 data set,49.2425,-57.35982915,-999.0,-999.0,,2128.406701,HYDAT gross drainage area,2110.0,HYDAT effective drainage area,,yes,WSC 2022 data set,2102.93,0.984136653,,high,CAN_02YL001 shares part of its upstream area with gauge CAN_02YL008.,2010-12-31 21:00:00,2023-01-02 23:00:00,285,1950-01-01 00:00:00,2021-12-31 00:00:00,141,NST,0,52,macro-scale
CAN,02YL004,SOUTH BROOK AT PASADENA,49.01228,-57.61142,WSC 20222 data set,49.0121234,-57.61126898,WSC 20222 data set,49.0125,-57.61126898,-999.0,-999.0,,54.68148375,HYDAT gross drainage area,58.5,HYDAT effective drainage area,,yes,WSC 2022 data set,56.4399,0.948630473,,high,,2010-12-31 21:00:00,2023-01-02 23:00:00,1333,1983-01-01 00:00:00,2021-12-31 00:00:00,0,NST,1,1,headwater
CAN,02YL005,RATTLER BROOK NEAR MCIVERS,49.05831,-58.10519,WSC 20222 data set,49.05863322,-58.10527381,WSC 20222 data set,-999.0,-999.0,-999.0,-999.0,,16.99226766,HYDAT gross drainage area,17.0,HYDAT effective drainage area,,yes,WSC 2022 data set,17.4519,0.954211646,,high,,2010-12-31 21:00:00,2023-01-02 23:00:00,82,1985-01-01 00:00:00,2021-12-31 00:00:00,0,NST,1,1,headwater
CAN,02YL008,UPPER HUMBER RIVER ABOVE BLACK BROOK,49.61825,-57.2945,WSC 20222 data set,49.61800411,-57.29426788,WSC 20222 data set,49.61770145,-57.29396522,-999.0,-999.0,,477.9209324,HYDAT gross drainage area,471.0,HYDAT effective drainage area,,yes,WSC 2022 data set,473.771,0.982378965,,high,CAN_02YL008 shares part of its upstream area with gauge CAN_02YL001.,2010-12-31 21:00:00,2023-01-02 23:00:00,221,1988-01-01 00:00:00,2021-12-31 00:00:00,0,NST,0,9,meso-scale
CAN,02YM003,SOUTH WEST BROOK NEAR BAIE VERTE,49.89353,-56.22214,WSC 20222 data set,49.89329103,-56.22206058,WSC 20222 data set,49.89333333,-56.22206058,-999.0,-999.0,,96.13225496,HYDAT gross drainage area,93.19999695,HYDAT effective drainage area,,yes,WSC 2022 data set,96.7815,0.976566719,,high,,2010-12-31 21:00:00,2023-01-02 23:00:00,143,1980-01-01 00:00:00,2021-12-31 00:00:00,0,NST,1,1,headwater
CAN,02YM004,INDIAN BROOK DIVERSION ABOVE BIRCHY LAKE,49.36725,-56.61519,WSC 20222 data set,49.3675226,-56.6154396,WSC 20222 data set,49.335,-56.6225,49.37163,-56.61829,yes,162.3216198,HYDAT gross drainage area,238.0,HYDAT effective drainage area,,yes,WSC 2022 data set,242.412,0.658590876,moved gauge slightly to better align with DEM,low,"Very flat region, difference with reference shape likely explained by DEM differences due to presence of lakes/potholes",2010-12-31 21:00:00,2023-01-02 23:00:00,184,1990-01-01 00:00:00,2019-12-31 00:00:00,0,NST,0,3,meso-scale
CAN,02YN002,LLOYDS RIVER BELOW KING GEORGE IV LAKE,48.23981,-57.82814,WSC 20222 data set,48.23983011,-57.82911416,WSC 20222 data set,48.23994131,-57.82922536,-999.0,-999.0,,464.4743056,HYDAT gross drainage area,469.0,HYDAT effective drainage area,,yes,WSC 2022 data set,481.069,0.94028579,,high,,2010-12-31 21:00:00,2023-01-02 23:00:00,168,1981-01-01 00:00:00,2021-12-31 00:00:00,0,NST,0,9,meso-scale
CAN,02YO006,PETERS RIVER NEAR BOTWOOD,49.10383,-55.39669,WSC 20222 data set,49.10399388,-55.3966085,WSC 20222 data set,49.10369269,-55.39630731,-999.0,-999.0,,180.4644426,HYDAT gross drainage area,177.0,HYDAT effective drainage area,,yes,WSC 2022 data set,179.015,0.958395123,,high,,2010-12-31 21:00:00,2023-01-02 23:00:00,298,1981-01-01 00:00:00,2022-12-31 00:00:00,0,NST,0,3,meso-scale
CAN,02YO008,GREAT RATTLING BROOK ABOVE TOTE RIVER CONFLUENCE,48.82667,-55.52869,WSC 20222 data set,48.82636318,-55.52892188,WSC 20222 data set,48.82636318,-55.52916667,-999.0,-999.0,,774.2708858,HYDAT gross drainage area,773.0,HYDAT effective drainage area,,yes,WSC 2022 data set,803.534,0.94012655,,high,,2010-12-31 21:00:00,2023-01-02 23:00:00,387,1984-01-01 00:00:00,2022-12-31 00:00:00,0,NST,0,21,meso-scale
CAN,02YO012,SOUTHWEST BROOK AT LEWISPORTE,49.21608,-55.052,WSC 20222 data set,49.21620165,-55.05188128,WSC 20222 data set,49.21591018,-55.05158982,-999.0,-999.0,,58.48337453,HYDAT gross drainage area,58.70000076,HYDAT effective drainage area,,yes,WSC 2022 data set,63.4491,0.900239324,,high,,2011-01-01 01:00:00,2023-01-02 23:00:00,257,1989-01-01 00:00:00,2021-12-31 00:00:00,0,NST,1,1,headwater
CAN,02YQ001,GANDER RIVER AT BIG CHUTE,49.01628,-54.85067,WSC 20222 data set,49.01672777,-54.85078473,WSC 20222 data set,49.01666667,-54.85078473,-999.0,-999.0,,4442.64872,HYDAT gross drainage area,4450.0,HYDAT effective drainage area,,yes,WSC 2022 data set,4443.28,0.984270188,,high,CAN_02YQ001 shares part of its upstream area with gauge CAN_02YQ005.,2010-12-31 21:00:00,2023-01-02 22:00:00,1466,1950-01-01 00:00:00,2021-12-31 00:00:00,0,NST,0,100,macro-scale
CAN,02YQ005,SALMON RIVER NEAR GLENWOOD,49.01128,-54.91689,WSC 20222 data set,49.01155873,-54.9172602,WSC 20222 data set,49.0117326,-54.91743407,-999.0,-999.0,,81.75049011,HYDAT gross drainage area,80.80000305,HYDAT effective drainage area,,yes,WSC 2022 data set,80.7678,0.946151425,,high,CAN_02YQ005 shares part of its upstream area with gauge CAN_02YQ001.,2010-12-31 21:00:00,2022-04-01 02:00:00,83,1987-01-01 00:00:00,2021-12-31 00:00:00,0,NST,1,1,headwater
CAN,02YR001,MIDDLE BROOK NEAR GAMBO,48.80739,-54.22256,WSC 20222 data set,48.80746994,-54.22247218,WSC 20222 data set,48.8075,-54.22247218,-999.0,-999.0,,265.4488303,HYDAT gross drainage area,275.0,HYDAT effective drainage area,,yes,WSC 2022 data set,267.518,0.956271601,,high,,2010-12-31 21:00:00,2023-01-02 23:00:00,213,1959-02-01 00:00:00,2021-12-31 00:00:00,0,NST,1,1,headwater
CAN,02YR003,INDIAN BAY BROOK NEAR NORTHWEST ARM,49.04217,-53.88567,WSC 20222 data set,49.04210144,-53.88569757,WSC 20222 data set,49.04223284,-53.88556617,-999.0,-999.0,,570.1610139,HYDAT gross drainage area,554.0,HYDAT effective drainage area,,yes,WSC 2022 data set,582.152,0.962139205,,high,,2010-12-31 21:00:00,2023-01-02 23:00:00,620,1981-01-01 00:00:00,2021-12-31 00:00:00,0,NST,0,15,meso-scale
CAN,02YS003,SOUTHWEST BROOK AT TERRA NOVA NATIONAL PARK,48.60772,-53.97889,WSC 20222 data set,48.60766802,-53.9787923,WSC 20222 data set,48.6077712,-53.97889547,-999.0,-999.0,,38.25413596,HYDAT gross drainage area,36.70000076,HYDAT effective drainage area,,yes,WSC 2022 data set,38.7324,0.954055526,,high,,2010-12-31 21:00:00,2023-01-02 23:00:00,241,1967-10-01 00:00:00,2019-12-31 00:00:00,12,NST,1,1,headwater
CAN,02YS005,TERRA NOVA RIVER AT GLOVERTOWN,48.66275,-54.01525,WSC 20222 data set,48.6625097,-54.0150217,WSC 20222 data set,48.662494,-54.015006,-999.0,-999.0,,2049.553711,HYDAT gross drainage area,2000.0,HYDAT effective drainage area,,yes,WSC 2022 data set,1895.72,0.912317709,,high,,2010-12-31 21:00:00,2023-01-02 23:00:00,613,1985-01-01 00:00:00,2021-12-31 00:00:00,0,NST,0,39,macro-scale
CAN,02YS006,NORTHWEST RIVER AT TERRA NOVA NATIONAL PARK,48.397,-54.20042,WSC 20222 data set,48.39724501,-54.20055241,WSC 20222 data set,48.3975,-54.20055241,-999.0,-999.0,,641.8561399,HYDAT gross drainage area,663.0,HYDAT effective drainage area,,yes,WSC 2022 data set,678.802,0.921587825,,high,,2010-12-31 21:00:00,2023-01-02 23:00:00,145,1995-01-01 00:00:00,2020-12-31 00:00:00,0,NST,0,17,meso-scale
CAN,02ZA002,HIGHLANDS RIVER AT TRANS-CANADA HIGHWAY,48.10839,-58.78358,WSC 20222 data set,48.10843853,-58.78333626,WSC 20222 data set,48.10838739,-58.78338739,-999.0,-999.0,,69.79402321,HYDAT gross drainage area,72.0,HYDAT effective drainage area,,yes,WSC 2022 data set,70.2882,0.973962881,,high,,2010-12-31 21:00:00,2023-01-02 23:00:00,194,1982-01-01 00:00:00,2020-12-31 00:00:00,0,NST,1,1,headwater
CAN,02ZB001,ISLE AUX MORTS RIVER BELOW HIGHWAY BRIDGE,47.61333,-59.00978,WSC 20222 data set,47.61361791,-59.0091687,WSC 20222 data set,47.61347461,-59.00902539,-999.0,-999.0,,201.9033564,HYDAT gross drainage area,205.0,HYDAT effective drainage area,,yes,WSC 2022 data set,204.099,0.967183865,,high,,2010-12-31 21:00:00,2023-01-02 23:00:00,460,1962-10-01 00:00:00,2021-12-31 00:00:00,0,NST,0,3,meso-scale
CAN,02ZC002,GRANDY BROOK BELOW TOP POND BROOK,47.85608,-57.73319,WSC 20222 data set,47.85614059,-57.73377644,WSC 20222 data set,47.85618208,-57.73381792,-999.0,-999.0,,218.1214091,HYDAT gross drainage area,230.0,HYDAT effective drainage area,,yes,WSC 2022 data set,251.624,0.852980746,,medium,"Very flat region, difference with reference shape likely explained by DEM differences due to presence of lakes/potholes",2010-12-31 21:00:00,2022-11-18 11:00:00,999,1982-01-01 00:00:00,2020-12-31 00:00:00,0,NST,0,5,meso-scale
CAN,02ZD002,GREY RIVER NEAR GREY RIVER,47.74331,-56.934,WSC 20222 data set,47.7423429,-56.9334897,WSC 20222 data set,47.74234327,-56.93349007,-999.0,-999.0,,2349.103332,HYDAT gross drainage area,1340.0,HYDAT effective drainage area,,yes,WSC 2022 data set,1350.88,0.565381421,,low,"Very flat region, difference with reference shape due to DEM (mistakenly?) connecting rivers across a road and due to presence of lakes",2010-12-31 21:00:00,2023-01-02 23:00:00,469,1969-07-01 00:00:00,2021-12-31 00:00:00,365,NST,0,55,macro-scale
CAN,02ZE004,CONNE RIVER AT OUTLET OF CONNE RIVER POND,48.16875,-55.48281,WSC 20222 data set,48.168761,-55.48222033,WSC 20222 data set,48.168761,-55.48166667,-999.0,-999.0,,90.54704063,HYDAT gross drainage area,99.5,HYDAT effective drainage area,,yes,WSC 2022 data set,102.6,0.863292977,,medium,"Very flat region, difference with reference shape due to DEM (mistakenly?) connecting rivers across a road and due to presence of lakes",2010-12-31 21:00:00,2023-01-02 23:00:00,214,1989-04-01 00:00:00,2022-12-31 00:00:00,11,NST,0,3,meso-scale
CAN,02ZF001,BAY DU NORD RIVER AT BIG FALLS,47.74683,-55.44022,WSC 20222 data set,47.74699378,-55.44029101,WSC 20222 data set,47.74697572,-55.44030906,-999.0,-999.0,,1186.705213,HYDAT gross drainage area,1170.0,HYDAT effective drainage area,,yes,WSC 2022 data set,1170.82,0.973381862,,high,,2010-12-31 21:00:00,2023-01-02 23:00:00,159,1950-10-01 00:00:00,2021-12-31 00:00:00,77,NST,0,29,macro-scale
CAN,02ZG001,GARNISH RIVER NEAR GARNISH,47.21642,-55.33,WSC 20222 data set,47.21663699,-55.3298057,WSC 20222 data set,-999.0,-999.0,-999.0,-999.0,,8.323136853,HYDAT gross drainage area,205.0,HYDAT effective drainage area,,yes,WSC 2022 data set,205.427,0.037602379,,low,"Very flat region, difference with reference shape likely explained by DEM misidentifying a channel as land",2010-12-31 21:00:00,2022-12-27 00:00:00,242,1958-10-01 00:00:00,2020-12-31 00:00:00,0,NST,1,1,headwater
CAN,02ZG003,SALMONIER RIVER NEAR LAMALINE,46.87781,-55.77619,WSC 20222 data set,46.87784649,-55.77609671,WSC 20222 data set,46.87795822,-55.77620844,-999.0,-999.0,,116.6787838,HYDAT gross drainage area,115.0,HYDAT effective drainage area,,yes,WSC 2022 data set,117.176,0.964997823,,high,,2010-12-31 21:00:00,2023-01-02 23:00:00,325,1980-01-01 00:00:00,2020-12-31 00:00:00,0,NST,0,3,meso-scale
CAN,02ZG004,RATTLE BROOK NEAR BOAT HARBOUR,47.45003,-54.85303,WSC 20222 data set,47.44774459,-54.85272073,WSC 20222 data set,47.44773266,-54.85273266,-999.0,-999.0,,40.73555862,HYDAT gross drainage area,42.70000076,HYDAT effective drainage area,,yes,WSC 2022 data set,44.7642,0.888927567,,medium,"Very flat region, difference with reference shape likely explained by DEM differences due to presence of lakes/potholes",2010-12-31 21:00:00,2023-01-02 23:00:00,251,1981-01-01 00:00:00,2020-12-31 00:00:00,0,NST,1,1,headwater
CAN,02ZH001,PIPERS HOLE RIVER AT MOTHERS BROOK,47.94667,-54.28433,WSC 20222 data set,47.94668793,-54.28505985,WSC 20222 data set,47.94666667,-54.285,-999.0,-999.0,,804.2175729,HYDAT gross drainage area,764.0,HYDAT effective drainage area,,yes,WSC 2022 data set,763.497,0.941224138,,high,,2010-12-31 21:00:00,2023-01-02 23:00:00,424,1952-11-01 00:00:00,2020-12-31 00:00:00,0,NST,0,21,meso-scale
CAN,02ZH002,COME BY CHANCE RIVER NEAR GOOBIES,47.91875,-53.94867,WSC 20222 data set,47.91864742,-53.94921496,WSC 20222 data set,47.91864742,-53.94916667,-999.0,-999.0,,47.81569196,HYDAT gross drainage area,43.29999924,HYDAT effective drainage area,,yes,WSC 2022 data set,36.4698,0.740321713,,medium,"Very flat region, difference with reference shape likely explained by DEM differences due to presence of lakes/potholes",2010-12-31 21:00:00,2023-01-02 23:00:00,955,1961-01-01 00:00:00,2019-12-31 00:00:00,21,NST,1,1,headwater
CAN,02ZJ001,SOUTHERN BAY RIVER NEAR SOUTHERN BAY,48.38067,-53.67394,WSC 20222 data set,48.38089064,-53.67394287,WSC 20222 data set,48.38097388,-53.67402612,-999.0,-999.0,,74.72074427,HYDAT gross drainage area,67.40000153,HYDAT effective drainage area,,yes,WSC 2022 data set,69.0597,0.907076314,,high,,2010-12-31 21:00:00,2023-01-02 23:00:00,515,1976-04-01 00:00:00,2019-12-31 00:00:00,8,NST,1,1,headwater
CAN,02ZJ002,SALMON COVE RIVER NEAR CHAMPNEYS,48.39592,-53.30161,WSC 20222 data set,48.39601006,-53.30217983,WSC 20222 data set,48.39601006,-53.3025,-999.0,-999.0,,83.16377515,HYDAT gross drainage area,73.59999847,HYDAT effective drainage area,,yes,WSC 2022 data set,78.2865,0.928225837,,high,,2010-12-31 21:00:00,2023-01-02 23:00:00,1107,1983-01-01 00:00:00,2021-12-31 00:00:00,0,NST,1,1,headwater
CAN,02ZJ003,SHOAL HARBOUR RIVER NEAR CLARENVILLE,48.22017,-54.04964,WSC 20222 data set,48.22033845,-54.04935519,WSC 20222 data set,48.22026349,-54.04943015,-999.0,-999.0,,99.85861117,HYDAT gross drainage area,106.0,HYDAT effective drainage area,,yes,WSC 2022 data set,96.7986,0.941201474,,high,,2010-12-31 21:00:00,2023-01-02 23:00:00,354,1986-01-01 00:00:00,2019-12-31 00:00:00,0,NST,1,1,headwater
CAN,02ZK001,ROCKY RIVER NEAR COLINET,47.22711,-53.56861,WSC 20222 data set,47.22706187,-53.56912175,WSC 20222 data set,47.22725848,-53.56892514,-999.0,-999.0,,297.2506534,HYDAT gross drainage area,301.0,HYDAT effective drainage area,,yes,WSC 2022 data set,296.108,0.952587788,,high,,2011-01-01 01:00:00,2023-01-02 23:00:00,463,1950-01-01 00:00:00,2021-12-31 00:00:00,0,NST,0,7,meso-scale
CAN,02ZK002,NORTHEAST RIVER NEAR PLACENTIA,47.27397,-53.83872,WSC 20222 data set,47.2738884,-53.83863737,WSC 20222 data set,47.2738884,-53.83833333,-999.0,-999.0,,93.75445954,HYDAT gross drainage area,89.59999847,HYDAT effective drainage area,,yes,WSC 2022 data set,93.5505,0.968527337,,high,,2010-12-31 21:00:00,2023-01-02 23:00:00,238,1979-01-01 00:00:00,2019-12-31 00:00:00,1,NST,1,1,headwater
CAN,02ZK004,LITTLE SALMONIER RIVER NEAR NORTH HARBOUR,47.12183,-53.73178,WSC 20222 data set,47.12213451,-53.73185437,WSC 20222 data set,47.12213451,-53.73166667,-999.0,-999.0,,107.5767992,HYDAT gross drainage area,104.0,HYDAT effective drainage area,,yes,WSC 2022 data set,103.07,0.931116709,,high,,2010-12-31 21:00:00,2022-06-01 11:00:00,294,1983-01-01 00:00:00,2021-12-31 00:00:00,0,NST,0,3,meso-scale
CAN,02ZL004,SHEARSTOWN BROOK AT SHEARSTOWN,47.58306,-53.30808,WSC 20222 data set,47.5834849,-53.30803536,WSC 20222 data set,47.58333333,-53.30803536,-999.0,-999.0,,30.06314993,HYDAT gross drainage area,28.89999962,HYDAT effective drainage area,,yes,WSC 2022 data set,29.916,0.93958026,,high,,2010-12-31 21:00:00,2023-01-02 23:00:00,427,1983-01-01 00:00:00,2021-12-31 00:00:00,0,NST,1,1,headwater
CAN,02ZL005,BIG BROOK AT LEAD COVE,48.04278,-53.08211,WSC 20222 data set,48.04268993,-53.08201271,WSC 20222 data set,-999.0,-999.0,48.04274,-53.08253,yes,13.66356957,HYDAT gross drainage area,11.19999981,HYDAT effective drainage area,,yes,WSC 2022 data set,10.6443,0.732110172,moved gauge slightly to better align with DEM,medium,"Very flat region, difference with reference shape likely explained by DEM differences due to presence of lakes/potholes",2010-12-31 22:00:00,2023-01-02 23:00:00,1044,1985-01-01 00:00:00,2021-12-31 00:00:00,0,NST,1,1,headwater
CAN,02ZM006,NORTHEAST POND RIVER AT NORTHEAST POND,47.63464,-52.83656,WSC 20222 data set,47.63454865,-52.83656296,WSC 20222 data set,-999.0,-999.0,-999.0,-999.0,,3.631551343,HYDAT gross drainage area,3.630000114,HYDAT effective drainage area,,yes,WSC 2022 data set,3.6198,0.928316316,,high,,2010-12-31 21:00:00,2023-01-02 23:00:00,128,1953-04-01 00:00:00,2021-12-31 00:00:00,0,NST,1,1,headwater
CAN,02ZM009,SEAL COVE BROOK NEAR CAPPAHAYDEN,46.84628,-52.97258,WSC 20222 data set,46.84645574,-52.97234486,WSC 20222 data set,46.84666667,-52.97234486,-999.0,-999.0,,54.74760082,HYDAT gross drainage area,53.59999847,HYDAT effective drainage area,,yes,WSC 2022 data set,54.6687,0.971044814,,high,,2010-12-31 21:00:00,2023-01-02 23:00:00,736,1979-02-01 00:00:00,2021-12-31 00:00:00,27,NST,1,1,headwater
CAN,02ZM016,SOUTH RIVER NEAR HOLYROOD,47.35467,-53.11722,WSC 20222 data set,47.35475555,-53.11716385,WSC 20222 data set,47.36916667,-53.12,47.35435,-53.11756,yes,16.65602616,HYDAT gross drainage area,17.29999924,HYDAT effective drainage area,,yes,WSC 2022 data set,17.5194,0.923020947,gauge is subbasin of MERIT headwater basin; moved gauge slightly to better align with DEM,high,,2010-12-31 21:00:00,2022-03-31 23:00:00,560,1983-01-01 00:00:00,2019-12-31 00:00:00,0,NST,1,1,headwater
CAN,02ZN002,ST. SHOTTS RIVER NEAR TREPASSEY,46.70989,-53.48558,WSC 20222 data set,46.7097,-53.4853405,WSC 20222 data set,46.71,-53.51583333,46.70919,-53.48522,yes,14.18914951,HYDAT gross drainage area,15.5,HYDAT effective drainage area,,yes,WSC 2022 data set,15.5556,0.856757671,gauge is subbasin along MERIT main river stem; moved gauge slightly to better align with DEM,medium,"Very flat region, difference with reference shape likely explained by DEM differences due to presence of lakes/potholes",2010-12-31 21:00:00,2023-01-02 23:00:00,356,1985-01-01 00:00:00,2019-12-31 00:00:00,0,NST,1,1,headwater
CAN,03NF001,UGJOKTOK RIVER BELOW HARP LAKE,55.23414,-61.30169,WSC 20222 data set,55.2327004,-61.30210751,WSC 20222 data set,55.23333333,-61.30210751,-999.0,-999.0,,7356.738184,HYDAT gross drainage area,7570.0,HYDAT effective drainage area,,yes,WSC 2022 data set,7546.82,0.960866593,,high,,2011-01-01 01:00:00,2023-01-02 23:00:00,6280,1979-01-01 00:00:00,2021-12-31 00:00:00,39,NST,0,151,macro-scale
CAN,03QC002,ALEXIS RIVER NEAR PORT HOPE SIMPSON,52.64861,-56.87122,WSC 20222 data set,52.64899485,-56.87164656,WSC 20222 data set,52.64909081,-56.87174252,-999.0,-999.0,,2290.266936,HYDAT gross drainage area,2310.0,HYDAT effective drainage area,,yes,WSC 2022 data set,2307.2,0.986995937,,high,,2011-01-01 01:00:00,2023-01-02 23:00:00,2769,1978-01-01 00:00:00,2022-12-31 00:00:00,0,NST,0,59,macro-scale
CAN,04AA004,HAYES RIVER BELOW TROUT FALLS,54.85639,-95.12,WSC 20222 data set,54.85506507,-95.12019056,WSC 20222 data set,54.855,-95.12019056,-999.0,-999.0,,8672.157524,HYDAT gross drainage area,9190.0,HYDAT effective drainage area,,yes,WSC 2022 data set,9189.36,0.922202792,,high,CAN_04AA004 shares part of its upstream area with gauge CAN_04AB001.,2011-01-01 00:00:00,2023-01-02 23:00:00,3820,1974-01-01 00:00:00,2022-12-31 00:00:00,551,CST,0,184,macro-scale
CAN,04CA003,ROSEBERRY RIVER ABOVE ROSEBERRY LAKES,52.65536,-92.51352,WSC 20222 data set,52.65441814,-92.51341656,WSC 20222 data set,52.65475069,-92.51308402,-999.0,-999.0,,614.4789337,HYDAT gross drainage area,619.0,HYDAT effective drainage area,,yes,WSC 2022 data set,623.881,0.953882951,,high,CAN_04CA003 shares part of its upstream area with gauge CAN_04CA002.,2011-01-31 16:00:00,2023-01-02 23:00:00,3487,1967-10-01 00:00:00,2020-12-31 00:00:00,173,CST,0,15,meso-scale
CAN,04DA001,PIPESTONE RIVER AT KARL LAKE,52.58058,-90.18669,WSC 20222 data set,52.579654,-90.18710565,WSC 20222 data set,52.58,-90.18710565,-999.0,-999.0,,5845.449658,HYDAT gross drainage area,5960.0,HYDAT effective drainage area,,yes,WSC 2022 data set,5932.62,0.962699894,,high,CAN_04DA001 shares part of its upstream area with gauge CAN_04DC001.,2010-12-31 23:00:00,2023-01-02 23:00:00,16171,1966-12-01 00:00:00,2021-12-31 00:00:00,10,CST,0,133,macro-scale
CAN,04DB001,ASHEWEIG RIVER AT STRAIGHT LAKE,53.71175,-87.95339,WSC 20222 data set,53.71341554,-87.9471136,WSC 20222 data set,53.71356763,-87.9472657,-999.0,-999.0,,7893.512967,HYDAT gross drainage area,7950.0,HYDAT effective drainage area,,yes,WSC 2022 data set,7917.17,0.975401944,,high,CAN_04DB001 shares part of its upstream area with gauge CAN_04DC001.,2011-01-01 00:00:00,2023-01-02 23:00:00,24690,1966-12-01 00:00:00,2021-12-31 00:00:00,65,EST,0,185,macro-scale
CAN,04DC002,SHAMATTAWA RIVER AT OUTLET OF SHAMATTAWA LAKE,54.28975,-85.65153,WSC 20222 data set,54.28947279,-85.65094012,WSC 20222 data set,54.28926633,-85.65073367,-999.0,-999.0,,4819.270642,HYDAT gross drainage area,4710.0,HYDAT effective drainage area,,yes,WSC 2022 data set,4705.0,0.942626966,,high,,2010-12-31 20:00:00,2023-01-02 23:00:00,58,1966-10-01 00:00:00,2021-12-31 00:00:00,149,EST,0,105,macro-scale
CAN,04EA001,EKWAN RIVER BELOW NORTH WASHAGAMI RIVER,53.80611,-84.91808,WSC 20222 data set,53.80699575,-84.91828785,WSC 20222 data set,53.80685395,-84.91814605,-999.0,-999.0,,8405.696598,HYDAT gross drainage area,10400.0,HYDAT effective drainage area,,yes,WSC 2022 data set,10158.4,0.805880302,,low,"Very flat region, difference with reference shape likely explained by DEM misidentifying a channel as land",2011-01-01 00:00:00,2023-01-02 23:00:00,9275,1967-12-01 00:00:00,2021-12-31 00:00:00,186,EST,0,193,macro-scale
CAN,04FA001,OTOSKWIN RIVER BELOW BADESDAWA LAKE,51.82325,-89.60214,WSC 20222 data set,51.82351621,-89.60214042,WSC 20222 data set,51.82366165,-89.60199498,-999.0,-999.0,,8977.284832,HYDAT gross drainage area,9010.0,HYDAT effective drainage area,,yes,WSC 2022 data set,9102.79,0.968312885,,high,"CAN_04FA001 shares part of its upstream area with gauges CAN_04FB001, CAN_04FC001.",2011-01-01 00:00:00,2023-01-02 23:00:00,23428,1966-10-01 00:00:00,2020-12-31 00:00:00,31,EST,0,201,macro-scale
CAN,04FA003,PINEIMUTA RIVER AT EYES LAKE,52.30828,-88.76033,WSC 20222 data set,52.29360814,-88.75436081,WSC 20222 data set,52.29398448,-88.75398448,-999.0,-999.0,,5099.156106,HYDAT gross drainage area,4900.0,HYDAT effective drainage area,,yes,WSC 2022 data set,5088.48,0.965660849,,high,"CAN_04FA003 shares part of its upstream area with gauges CAN_04FB001, CAN_04FC001.",2011-01-01 00:00:00,2023-01-02 23:00:00,20000,1966-10-01 00:00:00,2021-12-31 00:00:00,65,EST,0,107,macro-scale
CAN,04GA002,CAT RIVER BELOW WESLEYAN LAKE,51.17378,-91.59458,WSC 20222 data set,51.17254916,-91.59198188,WSC 20222 data set,51.17278364,-91.59221636,-999.0,-999.0,,5397.161668,HYDAT gross drainage area,5390.0,HYDAT effective drainage area,,yes,WSC 2022 data set,5409.46,0.962687533,,high,,2010-12-31 19:00:00,2023-01-02 23:00:00,6,1970-06-01 00:00:00,2021-12-31 00:00:00,138,CST,0,127,macro-scale
CAN,04GB005,BRIGHTSAND RIVER AT MOBERLEY,49.61131,-90.58081,WSC 20222 data set,49.61170923,-90.58102202,WSC 20222 data set,49.61201027,-90.58132306,-999.0,-999.0,,1095.865443,HYDAT gross drainage area,1140.0,HYDAT effective drainage area,,yes,WSC 2022 data set,1137.2,0.925099104,,high,,2010-12-31 19:00:00,2022-12-30 17:00:00,64,1968-05-01 00:00:00,2021-12-31 00:00:00,426,CST,0,27,macro-scale
CAN,04JC002,NAGAGAMI RIVER AT HIGHWAY NO. 11,49.77289,-84.53694,WSC 20222 data set,49.77305683,-84.53680351,WSC 20222 data set,49.77284684,-84.5370135,-999.0,-999.0,,2025.481106,HYDAT gross drainage area,2180.0,HYDAT effective drainage area,,yes,WSC 2022 data set,2185.14,0.899268265,,medium,"Very flat region, difference with reference shape likely explained by DEM differences due to presence of lakes/potholes",2011-01-01 00:00:00,2022-12-21 04:00:00,2567,1950-05-01 00:00:00,2021-12-31 00:00:00,49,EST,0,45,macro-scale
