station_id,station_name,lat,lon,elevation,source,type_mes,mmask,is_snotel,swq_valid_count,snd_valid_count,swq_completeness,snd_completeness,BOUNDING_BOX_COORDS,POUR_POINT_COORDS,Watershed_Name
CanSWE-ALE-05AA805,WEST CASTLE SNOW,49.266666,-114.35,1525.0,CanSWEv6-Alberta Environment,0,1,False,15,15,0.04793557458775406,0.04793557458775406,49.366665/-114.45/49.166668/-114.25,49.266666/-114.35,CanSWE_ALE_05AA805
CanSWE-ALE-05AA806,RACE HORSE CREEK,49.816666,-114.63333,1920.0,CanSWEv6-Alberta Environment,0,1,False,50,50,0.15978524862584687,0.15978524862584687,49.916664/-114.73333/49.716667/-114.53333,49.816666/-114.63333,CanSWE_ALE_05AA806
CanSWE-ALE-05AD802,MIDDLE DRYWOOD,49.25,-114.05,1570.0,CanSWEv6-Alberta Environment,0,1,False,7,7,0.02236993480761856,0.02236993480761856,49.35/-114.15/49.15/-113.950005,49.25/-114.05,CanSWE_ALE_05AD802
CanSWE-ALE-05AE810,\LEE CREEK \\P\\\,49.033333,-113.566666,1525.0,CanSWEv6-Alberta Environment,0,0,False,17,17,0.05432698453278793,0.05432698453278793,49.13333/-113.666664/48.933334/-113.46667,49.033333/-113.566666,CanSWE_ALE_05AE810
CanSWE-ALE-05AE811,\LEE CREEK \\D\\\,49.016666,-113.61667,1660.0,CanSWEv6-Alberta Environment,0,1,False,16,16,0.051131279560271,0.051131279560271,49.116665/-113.71667/48.916668/-113.51667,49.016666/-113.61667,CanSWE_ALE_05AE811
CanSWE-ALE-05AE812,\LEE CREEK \\E\\\,49.016666,-113.65,1675.0,CanSWEv6-Alberta Environment,0,1,False,14,14,0.04473986961523712,0.04473986961523712,49.116665/-113.75/48.916668/-113.55,49.016666/-113.65,CanSWE_ALE_05AE812
CanSWE-ALE-05AE813,\LEE CREEK \\F\\\,49.05,-113.48333,1570.0,CanSWEv6-Alberta Environment,0,0,False,16,16,0.051131279560271,0.051131279560271,49.149998/-113.58333/48.95/-113.38333,49.05/-113.48333,CanSWE_ALE_05AE813
CanSWE-ALE-05AE815,\LEE CREEK \\H\\\,48.966667,-113.53333,1646.0,CanSWEv6-Alberta Environment,0,1,False,8,8,0.0255656397801355,0.0255656397801355,49.066666/-113.63333/48.86667/-113.433334,48.966667/-113.53333,CanSWE_ALE_05AE815
CanSWE-ALE-05AE816,\LEE CREEK \\J\\\,48.983334,-113.6,1645.0,CanSWEv6-Alberta Environment,0,1,False,8,8,0.0255656397801355,0.0255656397801355,49.083332/-113.7/48.883335/-113.5,48.983334/-113.6,CanSWE_ALE_05AE816
CanSWE-ALE-05BA811,BOW SUMMIT (OLD),51.7,-116.46667,2080.0,CanSWEv6-Alberta Environment,0,1,False,7,7,0.02236993480761856,0.02236993480761856,51.8/-116.566666/51.600002/-116.36667,51.7/-116.46667,CanSWE_ALE_05BA811
CanSWE-ALE-05BL801,HIGHWOOD S. OPEN,50.6,-114.98333,2210.0,CanSWEv6-Alberta Environment,0,1,False,2,2,0.006391409945033875,0.006391409945033875,50.699997/-115.08333/50.5/-114.88333,50.6/-114.98333,CanSWE_ALE_05BL801
CanSWE-ALE-05BL808,MOUNT ODLUM,50.483334,-114.86667,1860.0,CanSWEv6-Alberta Environment,0,1,False,9,9,0.028761344752652435,0.028761344752652435,50.583332/-114.96667/50.383335/-114.76667,50.483334/-114.86667,CanSWE_ALE_05BL808
CanSWE-ALE-05FA802,PIPESTONE CREEK,53.066666,-113.816666,790.0,CanSWEv6-Alberta Environment,0,0,False,31,31,0.09906685414802505,0.09906685414802505,53.166664/-113.916664/52.966667/-113.71667,53.066666/-113.816666,CanSWE_ALE_05FA802
CanSWE-ALE-07BB805,PADDLE 1,53.8667,-115.3167,760.0,CanSWEv6-Alberta Environment,0,0,False,15,15,0.04793557458775406,0.04793557458775406,53.966698/-115.4167/53.7667/-115.216705,53.8667/-115.3167,CanSWE_ALE_07BB805
CanSWE-ALE-07DD802,JACKFISH VILLAGE,58.416668,-110.933334,210.0,CanSWEv6-Alberta Environment,0,0,False,88,88,0.28122203758149045,0.28122203758149045,58.516666/-111.03333/58.31667/-110.833336,58.416668/-110.933334,CanSWE_ALE_07DD802
CanSWE-ALE-07GF808,SPRING CREEK#2,54.916668,-117.816666,650.0,CanSWEv6-Alberta Environment,0,0,False,37,37,0.11824108398312669,0.11824108398312669,55.016666/-117.916664/54.81667/-117.71667,54.916668/-117.816666,CanSWE_ALE_07GF808
CanSWE-ALE-07GF809,SPRING CREEK#3,54.95,-117.683334,730.0,CanSWEv6-Alberta Environment,0,0,False,37,37,0.11824108398312669,0.11824108398312669,55.05/-117.78333/54.850002/-117.583336,54.95/-117.683334,CanSWE_ALE_07GF809
CanSWE-ALE-07GF810,SPRING CREEK#4,54.916668,-117.683334,740.0,CanSWEv6-Alberta Environment,0,0,False,37,37,0.11824108398312669,0.11824108398312669,55.016666/-117.78333/54.81667/-117.583336,54.916668/-117.683334,CanSWE_ALE_07GF810
CanSWE-ALE-07KF801,HIGHROCK TOWER,58.8,-111.55,210.0,CanSWEv6-Alberta Environment,0,0,False,89,89,0.2844177425540074,0.2844177425540074,58.899998/-111.65/58.7/-111.450005,58.8/-111.55,CanSWE_ALE_07KF801
CanSWE-ALE-11AB801,THELMA CREEK,49.566666,-110.26667,1295.0,CanSWEv6-Alberta Environment,0,0,False,9,9,0.028761344752652435,0.028761344752652435,49.666664/-110.36667/49.466667/-110.16667,49.566666/-110.26667,CanSWE_ALE_11AB801
CanSWE-BCE-1A01,YELLOWHEAD,52.9,-118.55,1860.0,CanSWEv6-British Columbia Environment,0,1,False,139,139,0.4442029911798543,0.4442029911798543,53.0/-118.65/52.800003/-118.450005,52.9/-118.55,CanSWE_BCE_1A01
CanSWE-BCE-1A02,MC BRIDE (UPPER),53.3,-120.316666,1580.0,CanSWEv6-British Columbia Environment,0,1,False,216,216,0.6902722740636584,0.6902722740636584,53.399998/-120.416664/53.2/-120.21667,53.3/-120.316666,CanSWE_BCE_1A02
CanSWE-BCE-1A03,BARKERVILLE,53.05,-121.48333,1520.0,CanSWEv6-British Columbia Environment,0,1,False,165,165,0.5272913204652946,0.5272913204652946,53.149998/-121.58333/52.95/-121.38333,53.05/-121.48333,CanSWE_BCE_1A03
CanSWE-BCE-1A06,HANSARD,54.083332,-121.86667,590.0,CanSWEv6-British Columbia Environment,0,0,False,21,21,0.06710980442285569,0.06710980442285569,54.18333/-121.96667/53.983334/-121.76667,54.083332/-121.86667,CanSWE_BCE_1A06
CanSWE-BCE-1A07,FORT ST.JAMES,54.483334,-124.15,810.0,CanSWEv6-British Columbia Environment,0,0,False,90,90,0.28761344752652435,0.28761344752652435,54.583332/-124.25/54.383335/-124.05,54.483334/-124.15,CanSWE_BCE_1A07
CanSWE-BCE-1A08,BOWRON LAKE,53.25,-121.36667,1280.0,CanSWEv6-British Columbia Environment,0,1,False,11,11,0.035152754697686306,0.035152754697686306,53.35/-121.46667/53.15/-121.26667,53.25/-121.36667,CanSWE_BCE_1A08
CanSWE-BCE-1A09,TORPY RIVER,54.083332,-121.666664,1070.0,CanSWEv6-British Columbia Environment,0,1,False,35,35,0.1118496740380928,0.1118496740380928,54.18333/-121.76666/53.983334/-121.566666,54.083332/-121.666664,CanSWE_BCE_1A09
CanSWE-BCE-1A13,LONGWORTH (LOWER),53.95,-121.45,1230.0,CanSWEv6-British Columbia Environment,0,1,False,37,37,0.11824108398312669,0.11824108398312669,54.05/-121.549995/53.850002/-121.35,53.95/-121.45,CanSWE_BCE_1A13
CanSWE-BCE-1A14,HEDRICK LAKE,54.1,-121.0,1100.0,CanSWEv6-British Columbia Environment,0,1,False,200,200,0.6391409945033875,0.6391409945033875,54.199997/-121.1/54.0/-120.9,54.1/-121.0,CanSWE_BCE_1A14
CanSWE-BCE-1A17,REVOLUTION CREEK,53.783333,-120.36667,1690.0,CanSWEv6-British Columbia Environment,0,1,False,104,103,0.3323533171417615,0.32915761216924455,53.88333/-120.46667/53.683334/-120.26667,53.783333/-120.36667,CanSWE_BCE_1A17
CanSWE-BCE-1A18,HOLMES RIVER,53.266666,-119.45,1900.0,CanSWEv6-British Columbia Environment,0,1,False,136,136,0.4346158762623034,0.4346158762623034,53.366665/-119.549995/53.166668/-119.35,53.266666/-119.45,CanSWE_BCE_1A18
CanSWE-BCE-1A19,DOME MOUNTAIN,53.616665,-121.01667,1820.0,CanSWEv6-British Columbia Environment,0,1,False,168,168,0.5368784353828455,0.5368784353828455,53.716663/-121.11667/53.516666/-120.91667,53.616665/-121.01667,CanSWE_BCE_1A19
CanSWE-BCE-1A20,MCBRIDE (MIDDLE),53.333332,-120.316666,1160.0,CanSWEv6-British Columbia Environment,0,1,False,119,119,0.3802888917295155,0.3802888917295155,53.43333/-120.416664/53.233334/-120.21667,53.333332/-120.316666,CanSWE_BCE_1A20
CanSWE-BCE-1A21,NARROW LAKE,53.583332,-121.9,1650.0,CanSWEv6-British Columbia Environment,0,1,False,133,133,0.42502876134475265,0.42502876134475265,53.68333/-122.0/53.483334/-121.8,53.583332/-121.9,CanSWE_BCE_1A21
CanSWE-BCE-1A22,MCBRIDE (LOWER),53.333332,-120.28333,790.0,CanSWEv6-British Columbia Environment,0,1,False,87,87,0.2780263326089735,0.2780263326089735,53.43333/-120.38333/53.233334/-120.183334,53.333332/-120.28333,CanSWE_BCE_1A22
CanSWE-BCE-1A24,FORFAR CREEK (UPPER),54.983334,-125.583336,1410.0,CanSWEv6-British Columbia Environment,0,1,False,40,40,0.12782819890067748,0.12782819890067748,55.083332/-125.683334/54.883335/-125.48334,54.983334/-125.583336,CanSWE_BCE_1A24
CanSWE-BCE-1B03,PONDOSY LAKE,53.183334,-126.88333,1020.0,CanSWEv6-British Columbia Environment,0,1,False,15,15,0.04793557458775406,0.04793557458775406,53.283333/-126.98333/53.083336/-126.78333,53.183334/-126.88333,CanSWE_BCE_1B03
CanSWE-BCE-1C02,PORCUPINE RIDGE,50.966667,-120.55,1830.0,CanSWEv6-British Columbia Environment,0,1,False,58,58,0.18535088840598235,0.18535088840598235,51.066666/-120.65/50.86667/-120.450005,50.966667/-120.55,CanSWE_BCE_1C02
CanSWE-BCE-1C03,TRANQUILLE LAKE,50.933334,-120.55,1420.0,CanSWEv6-British Columbia Environment,0,1,False,60,60,0.19174229835101625,0.19174229835101625,51.033333/-120.65/50.833336/-120.450005,50.933334/-120.55,CanSWE_BCE_1C03
CanSWE-BCE-1C04,PASS LAKE,50.85,-120.5,870.0,CanSWEv6-British Columbia Environment,0,1,False,61,61,0.19493800332353317,0.19493800332353317,50.949997/-120.6/50.75/-120.4,50.85/-120.5,CanSWE_BCE_1C04
CanSWE-BCE-1C07,LAC LE JEUNE (LOWER),50.466667,-120.5,1370.0,CanSWEv6-British Columbia Environment,0,1,False,164,164,0.5240956154927777,0.5240956154927777,50.566666/-120.6/50.36667/-120.4,50.466667/-120.5,CanSWE_BCE_1C07
CanSWE-BCE-1C10,FRENCH SNOWSHOE,52.85,-121.416664,1580.0,CanSWEv6-British Columbia Environment,0,1,False,29,29,0.09267544420299118,0.09267544420299118,52.949997/-121.51666/52.75/-121.316666,52.85/-121.416664,CanSWE_BCE_1C10
CanSWE-BCE-1C12,GREEN MOUNTAIN,50.783333,-122.916664,1630.0,CanSWEv6-British Columbia Environment,0,1,False,115,115,0.3675060718394478,0.3675060718394478,50.88333/-123.01666/50.683334/-122.816666,50.783333/-122.916664,CanSWE_BCE_1C12
CanSWE-BCE-1C13,BLACK MOUNTAIN,52.333332,-121.11667,1570.0,CanSWEv6-British Columbia Environment,0,1,False,22,22,0.07030550939537261,0.07030550939537261,52.43333/-121.21667/52.233334/-121.01667,52.333332/-121.11667,CanSWE_BCE_1C13
CanSWE-BCE-1C16,LYTTON,50.25,-121.566666,270.0,CanSWEv6-British Columbia Environment,0,1,False,106,106,0.33874472708679537,0.33874472708679537,50.35/-121.666664/50.15/-121.46667,50.25/-121.566666,CanSWE_BCE_1C16
CanSWE-BCE-1C18,MISSION RIDGE,50.766666,-122.2,1850.0,CanSWEv6-British Columbia Environment,0,1,False,136,136,0.4346158762623034,0.4346158762623034,50.866665/-122.299995/50.666668/-122.1,50.766666/-122.2,CanSWE_BCE_1C18
CanSWE-BCE-1C20,BOSS MOUNTAIN MINE,52.1,-120.86667,1500.0,CanSWEv6-British Columbia Environment,0,1,False,131,131,0.4186373513997188,0.4186373513997188,52.199997/-120.96667/52.0/-120.76667,52.1/-120.86667,CanSWE_BCE_1C20
CanSWE-BCE-1C24,YANKS PEAK,52.85,-121.416664,1710.0,CanSWEv6-British Columbia Environment,0,1,False,101,101,0.32276620222421065,0.32276620222421065,52.949997/-121.51666/52.75/-121.316666,52.85/-121.416664,CanSWE_BCE_1C24
CanSWE-BCE-1C26,HARRY LAKE,50.783333,-121.55,1350.0,CanSWEv6-British Columbia Environment,0,1,False,29,29,0.09267544420299118,0.09267544420299118,50.88333/-121.65/50.683334/-121.450005,50.783333/-121.55,CanSWE_BCE_1C26
CanSWE-BCE-1C27,CORNWALL HILLS,50.7,-121.45,2000.0,CanSWEv6-British Columbia Environment,0,1,False,36,36,0.11504537901060974,0.11504537901060974,50.8/-121.549995/50.600002/-121.35,50.7/-121.45,CanSWE_BCE_1C27
CanSWE-BCE-1C30,SPAHOMIN,50.133335,-120.36667,1450.0,CanSWEv6-British Columbia Environment,0,1,False,76,76,0.24287357791128722,0.24287357791128722,50.233334/-120.46667/50.033337/-120.26667,50.133335/-120.36667,CanSWE_BCE_1C30
CanSWE-BCE-1C31,CONANT LAKE,50.283333,-120.55,1370.0,CanSWEv6-British Columbia Environment,0,1,False,72,72,0.23009075802121948,0.23009075802121948,50.38333/-120.65/50.183334/-120.450005,50.283333/-120.55,CanSWE_BCE_1C31
CanSWE-BCE-1C33,GRANITE MOUNTAIN,52.533333,-122.26667,1150.0,CanSWEv6-British Columbia Environment,0,1,False,74,74,0.23648216796625338,0.23648216796625338,52.63333/-122.36667/52.433334/-122.16667,52.533333/-122.26667,CanSWE_BCE_1C33
CanSWE-BCE-1C34,BONAPARTE LAKE,51.316666,-120.416664,1450.0,CanSWEv6-British Columbia Environment,0,1,False,33,33,0.10545826409305893,0.10545826409305893,51.416664/-120.51666/51.216667/-120.316666,51.316666/-120.416664,CanSWE_BCE_1C34
CanSWE-BCE-1C35,FISH LAKE,51.466667,-123.61667,1500.0,CanSWEv6-British Columbia Environment,0,1,False,22,22,0.07030550939537261,0.07030550939537261,51.566666/-123.71667/51.36667/-123.51667,51.466667/-123.61667,CanSWE_BCE_1C35
CanSWE-BCE-1C35A,FISH LAKE NO.2,51.466667,-123.61667,1550.0,CanSWEv6-British Columbia Environment,0,1,False,10,10,0.03195704972516937,0.03195704972516937,51.566666/-123.71667/51.36667/-123.51667,51.466667/-123.61667,CanSWE_BCE_1C35A
CanSWE-BCE-1C36,PAVILION MOUNTAIN,50.983334,-121.71667,1960.0,CanSWEv6-British Columbia Environment,0,1,False,16,16,0.051131279560271,0.051131279560271,51.083332/-121.816666/50.883335/-121.61667,50.983334/-121.71667,CanSWE_BCE_1C36
CanSWE-BCE-1C42,CAVERHILL LAKE,51.34259,-120.40918,1397.0,CanSWEv6-British Columbia Environment,0,1,False,22,22,0.07030550939537261,0.07030550939537261,51.44259/-120.50918/51.24259/-120.30918,51.34259/-120.40918,CanSWE_BCE_1C42
CanSWE-BCE-1D01,COQUITLAM LAKE,49.366665,-122.8,300.0,CanSWEv6-British Columbia Environment,0,1,False,2,2,0.006391409945033875,0.006391409945033875,49.466663/-122.9/49.266666/-122.700005,49.366665/-122.8,CanSWE_BCE_1D01
CanSWE-BCE-1D06,TENQUILLE LAKE,50.533333,-122.916664,1680.0,CanSWEv6-British Columbia Environment,0,1,False,215,215,0.6870765690911415,0.6870765690911415,50.63333/-123.01666/50.433334/-122.816666,50.533333/-122.916664,CanSWE_BCE_1D06
CanSWE-BCE-1D07,HOPE,49.383335,-121.416664,70.0,CanSWEv6-British Columbia Environment,0,1,False,31,33,0.09906685414802505,0.10545826409305893,49.483334/-121.51666/49.283337/-121.316666,49.383335/-121.416664,CanSWE_BCE_1D07
CanSWE-BCE-1D11,BOSTON BAR CREEK (UPPER),49.583332,-121.21667,1340.0,CanSWEv6-British Columbia Environment,0,1,False,63,63,0.20132941326856701,0.20132941326856701,49.68333/-121.316666/49.483334/-121.11667,49.583332/-121.21667,CanSWE_BCE_1D11
CanSWE-BCE-1D11P,BOSTON BAR CREEK UPPER - PILLOW,49.583332,-121.21667,1340.0,CanSWEv6-British Columbia Environment,2,1,False,238,0,0.760577783459031,0.0,49.68333/-121.316666/49.483334/-121.11667,49.583332/-121.21667,CanSWE_BCE_1D11P
CanSWE-BCE-1D12,BOSTON BAR CREEK (LOWER),49.6,-121.11667,1230.0,CanSWEv6-British Columbia Environment,0,1,False,54,54,0.1725680685159146,0.1725680685159146,49.699997/-121.21667/49.5/-121.01667,49.6/-121.11667,CanSWE_BCE_1D12
CanSWE-BCE-1D12P,BOSTON BAR CREEK LOWER - PILLOW,49.583332,-121.21667,1230.0,CanSWEv6-British Columbia Environment,2,1,False,244,0,0.7797520132941327,0.0,49.68333/-121.316666/49.483334/-121.11667,49.583332/-121.21667,CanSWE_BCE_1D12P
CanSWE-BCE-1D13,WOLVERINE CREEK,50.516666,-122.96667,300.0,CanSWEv6-British Columbia Environment,0,1,False,136,136,0.4346158762623034,0.4346158762623034,50.616665/-123.066666/50.416668/-122.86667,50.516666/-122.96667,CanSWE_BCE_1D13
CanSWE-BCE-1D14,OTTOMITE,49.60275,-121.153656,1460.0,CanSWEv6-British Columbia Environment,0,1,False,81,81,0.25885210277387194,0.25885210277387194,49.702747/-121.253654/49.50275/-121.05366,49.60275/-121.153656,CanSWE_BCE_1D14
CanSWE-BCE-1D14P,OTTOMITE - PILLOW,49.6,-121.15,1460.0,CanSWEv6-British Columbia Environment,2,1,False,548,0,1.7512463249392813,0.0,49.699997/-121.25/49.5/-121.05,49.6/-121.15,CanSWE_BCE_1D14P
CanSWE-BCE-1D15,GREAT BEAR,49.6,-121.183334,1660.0,CanSWEv6-British Columbia Environment,0,1,False,80,80,0.25565639780135496,0.25565639780135496,49.699997/-121.28333/49.5/-121.083336,49.6/-121.183334,CanSWE_BCE_1D15
CanSWE-BCE-1D15P,GREAT BEAR-PILLOW,49.6,-121.183334,1660.0,CanSWEv6-British Columbia Environment,2,1,False,5898,0,18.848267927904896,0.0,49.699997/-121.28333/49.5/-121.083336,49.6/-121.183334,CanSWE_BCE_1D15P
CanSWE-BCE-1E01A,BLUE RIVER TOWN,52.133335,-119.25,670.0,CanSWEv6-British Columbia Environment,0,1,False,62,62,0.1981337082960501,0.1981337082960501,52.233334/-119.35/52.033337/-119.15,52.133335/-119.25,CanSWE_BCE_1E01A
CanSWE-BCE-1E02A,MOUNT COOK,52.183334,-119.316666,1580.0,CanSWEv6-British Columbia Environment,0,1,False,206,206,0.6583152243384891,0.6583152243384891,52.283333/-119.416664/52.083336/-119.21667,52.183334/-119.316666,CanSWE_BCE_1E02A
CanSWE-BCE-1E03,TROPHY MOUNTAIN,51.816666,-119.933334,1900.0,CanSWEv6-British Columbia Environment,0,1,False,7,7,0.02236993480761856,0.02236993480761856,51.916664/-120.03333/51.716667/-119.833336,51.816666/-119.933334,CanSWE_BCE_1E03
CanSWE-BCE-1E04,MOUNT ALBREDA,52.5,-119.05,1920.0,CanSWEv6-British Columbia Environment,0,1,False,81,81,0.25885210277387194,0.25885210277387194,52.6/-119.15/52.4/-118.950005,52.5/-119.05,CanSWE_BCE_1E04
CanSWE-BCE-1E06,COOK FORKS,52.166668,-119.316666,1390.0,CanSWEv6-British Columbia Environment,0,1,False,199,199,0.6359452895308706,0.6359452895308706,52.266666/-119.416664/52.06667/-119.21667,52.166668/-119.316666,CanSWE_BCE_1E06
CanSWE-BCE-1E08,AZURE RIVER,52.616665,-119.71667,1620.0,CanSWEv6-British Columbia Environment,0,1,False,115,115,0.3675060718394478,0.3675060718394478,52.716663/-119.816666/52.516666/-119.61667,52.616665/-119.71667,CanSWE_BCE_1E08
CanSWE-BCE-1E10,KOSTAL LAKE,52.2,-120.03333,1770.0,CanSWEv6-British Columbia Environment,0,1,False,70,68,0.2236993480761856,0.2173079381311517,52.3/-120.13333/52.100002/-119.933334,52.2/-120.03333,CanSWE_BCE_1E10
CanSWE-BCE-1E11,MOUNT SAINT ANNE,52.266666,-119.23333,1770.0,CanSWEv6-British Columbia Environment,0,1,False,49,49,0.15658954365332992,0.15658954365332992,52.366665/-119.33333/52.166668/-119.13333,52.266666/-119.23333,CanSWE_BCE_1E11
CanSWE-BCE-1E11P,MOUNT SAINT ANNE - PILLOW,52.266666,-119.23333,1770.0,CanSWEv6-British Columbia Environment,2,1,False,935,0,2.9879841493033363,0.0,52.366665/-119.33333/52.166668/-119.13333,52.266666/-119.23333,CanSWE_BCE_1E11P
CanSWE-BCE-1E12,MCQUEEN LAKE,50.833332,-120.45,1100.0,CanSWEv6-British Columbia Environment,0,1,False,52,52,0.16617665857088074,0.16617665857088074,50.93333/-120.549995/50.733334/-120.35,50.833332/-120.45,CanSWE_BCE_1E12
CanSWE-BCE-1E13,NORTH CLEMINA CREEK,52.566666,-118.95,1860.0,CanSWEv6-British Columbia Environment,0,1,False,100,100,0.31957049725169373,0.31957049725169373,52.666664/-119.049995/52.466667/-118.85,52.566666/-118.95,CanSWE_BCE_1E13
CanSWE-BCE-1F01B,HADDO LAKE,50.1,-119.083336,1300.0,CanSWEv6-British Columbia Environment,0,1,False,33,33,0.10545826409305893,0.10545826409305893,50.199997/-119.183334/50.0/-118.98334,50.1/-119.083336,CanSWE_BCE_1F01B
CanSWE-BCE-1F03,PARK MOUNTAIN,50.45,-118.61667,1890.0,CanSWEv6-British Columbia Environment,0,1,False,97,95,0.3099833823341429,0.30359197238910907,50.55/-118.71667/50.350002/-118.51667,50.45/-118.61667,CanSWE_BCE_1F03
CanSWE-BCE-1F05,HUMAMILT LAKE,51.333332,-119.1,1280.0,CanSWEv6-British Columbia Environment,0,1,False,4,4,0.01278281989006775,0.01278281989006775,51.43333/-119.2/51.233334/-119.0,51.333332/-119.1,CanSWE_BCE_1F05
CanSWE-BCE-2A01,CANOE RIVER,52.816666,-119.2,1040.0,CanSWEv6-British Columbia Environment,0,1,False,1,1,0.0031957049725169374,0.0031957049725169374,52.916664/-119.299995/52.716667/-119.1,52.816666/-119.2,CanSWE_BCE_2A01
CanSWE-BCE-2A02A,NEW GLACIER,51.25,-117.5,1250.0,CanSWEv6-British Columbia Environment,0,1,False,1,1,0.0031957049725169374,0.0031957049725169374,51.35/-117.6/51.15/-117.4,51.25/-117.5,CanSWE_BCE_2A02A
CanSWE-BCE-2A06,MOUNT REVELSTOKE,51.033333,-118.15,1830.0,CanSWEv6-British Columbia Environment,0,1,False,156,156,0.4985299757126422,0.4985299757126422,51.13333/-118.25/50.933334/-118.05,51.033333/-118.15,CanSWE_BCE_2A06
CanSWE-BCE-2A15,MICA CREEK,52.016666,-118.566666,560.0,CanSWEv6-British Columbia Environment,0,1,False,41,41,0.13102390387319443,0.13102390387319443,52.116665/-118.666664/51.916668/-118.46667,52.016666/-118.566666,CanSWE_BCE_2A15
CanSWE-BCE-2A17P,FIDELITY MOUNTAIN - PILLOW,51.233334,-117.7,1970.0,CanSWEv6-British Columbia Environment,2,1,False,344,0,1.0993225105458264,0.0,51.333332/-117.799995/51.133335/-117.6,51.233334/-117.7,CanSWE_BCE_2A17P
CanSWE-BCE-2A20,WATAM LAKE,51.466667,-118.566666,1810.0,CanSWEv6-British Columbia Environment,0,1,False,1,1,0.0031957049725169374,0.0031957049725169374,51.566666/-118.666664/51.36667/-118.46667,51.466667/-118.566666,CanSWE_BCE_2A20
CanSWE-BCE-2A21,MOLSON CREEK,52.233334,-118.23333,1980.0,CanSWEv6-British Columbia Environment,0,1,False,88,88,0.28122203758149045,0.28122203758149045,52.333332/-118.33333/52.133335/-118.13333,52.233334/-118.23333,CanSWE_BCE_2A21
CanSWE-BCE-2A26,BUGABOO CREEK,50.75,-116.7,1510.0,CanSWEv6-British Columbia Environment,0,1,False,67,67,0.21411223315863478,0.21411223315863478,50.85/-116.799995/50.65/-116.6,50.75/-116.7,CanSWE_BCE_2A26
CanSWE-BCE-2B01,REVELSTOKE,50.983334,-118.21667,560.0,CanSWEv6-British Columbia Environment,0,0,False,69,69,0.22050364310366868,0.22050364310366868,51.083332/-118.316666/50.883335/-118.11667,50.983334/-118.21667,CanSWE_BCE_2B01
CanSWE-BCE-2B02,FARRON,49.266666,-118.13333,1220.0,CanSWEv6-British Columbia Environment,0,1,False,37,37,0.11824108398312669,0.11824108398312669,49.366665/-118.23333/49.166668/-118.03333,49.266666/-118.13333,CanSWE_BCE_2B02
CanSWE-BCE-2B03,OLD GLORY MOUNTAIN,49.15,-117.916664,2130.0,CanSWEv6-British Columbia Environment,0,1,False,8,8,0.0255656397801355,0.0255656397801355,49.25/-118.01666/49.050003/-117.816666,49.15/-117.916664,CanSWE_BCE_2B03
CanSWE-BCE-2B04,WHATSHAN (LOWER),50.2,-118.03333,1250.0,CanSWEv6-British Columbia Environment,0,1,False,1,1,0.0031957049725169374,0.0031957049725169374,50.3/-118.13333/50.100002/-117.933334,50.2/-118.03333,CanSWE_BCE_2B04
CanSWE-BCE-2B06,BARNES CREEK,50.066666,-118.35,1620.0,CanSWEv6-British Columbia Environment,0,1,False,175,175,0.559248370190464,0.559248370190464,50.166664/-118.45/49.966667/-118.25,50.066666/-118.35,CanSWE_BCE_2B06
CanSWE-BCE-2B08,ST. LEON CREEK,50.433334,-117.7,1800.0,CanSWEv6-British Columbia Environment,0,1,False,159,159,0.5081170906301931,0.5081170906301931,50.533333/-117.799995/50.333336/-117.6,50.433334/-117.7,CanSWE_BCE_2B08
CanSWE-BCE-2C02,FERNIE,49.5,-115.05,1070.0,CanSWEv6-British Columbia Environment,0,1,False,48,48,0.153393838680813,0.153393838680813,49.6/-115.15/49.4/-114.950005,49.5/-115.05,CanSWE_BCE_2C02
CanSWE-BCE-2C02A,FERNIE (NE),49.516666,-115.03333,1070.0,CanSWEv6-British Columbia Environment,0,1,False,50,50,0.15978524862584687,0.15978524862584687,49.616665/-115.13333/49.416668/-114.933334,49.516666/-115.03333,CanSWE_BCE_2C02A
CanSWE-BCE-2C03A,KIMBERLEY,49.683334,-115.98333,1160.0,CanSWEv6-British Columbia Environment,0,1,False,37,37,0.11824108398312669,0.11824108398312669,49.783333/-116.08333/49.583336/-115.88333,49.683334/-115.98333,CanSWE_BCE_2C03A
CanSWE-BCE-2C05,MARBLE CANYON,51.2,-116.13333,1520.0,CanSWEv6-British Columbia Environment,0,1,False,172,172,0.5496612552729132,0.5496612552729132,51.3/-116.23333/51.100002/-116.03333,51.2/-116.13333,CanSWE_BCE_2C05
CanSWE-BCE-2C06,UPPER ELK RIVER,49.983334,-114.916664,1340.0,CanSWEv6-British Columbia Environment,0,1,False,69,69,0.22050364310366868,0.22050364310366868,50.083332/-115.01666/49.883335/-114.816666,49.983334/-114.916664,CanSWE_BCE_2C06
CanSWE-BCE-2C09,MORRISSEY RIDGE NO. 1,49.45,-114.96667,1860.0,CanSWEv6-British Columbia Environment,0,1,False,82,82,0.26204780774638886,0.26204780774638886,49.55/-115.066666/49.350002/-114.86667,49.45/-114.96667,CanSWE_BCE_2C09
CanSWE-BCE-2C09A,MORRISSEY RIDGE,49.45,-114.96667,1800.0,CanSWEv6-British Columbia Environment,0,1,False,103,103,0.32915761216924455,0.32915761216924455,49.55/-115.066666/49.350002/-114.86667,49.45/-114.96667,CanSWE_BCE_2C09A
CanSWE-BCE-2C09P,MORISSEY RIDGE - PILLOW,49.45,-114.96667,1860.0,CanSWEv6-British Columbia Environment,2,1,False,532,0,1.7001150453790106,0.0,49.55/-115.066666/49.350002/-114.86667,49.45/-114.96667,CanSWE_BCE_2C09P
CanSWE-BCE-2C10,MOYIE MOUNTAIN,49.25,-115.76667,1940.0,CanSWEv6-British Columbia Environment,0,1,False,168,168,0.5368784353828455,0.5368784353828455,49.35/-115.86667/49.15/-115.66667,49.25/-115.76667,CanSWE_BCE_2C10
CanSWE-BCE-2C13,KIMBERLEY (LOWER) V O R,49.533333,-116.03333,1370.0,CanSWEv6-British Columbia Environment,0,1,False,68,68,0.2173079381311517,0.2173079381311517,49.63333/-116.13333/49.433334/-115.933334,49.533333/-116.03333,CanSWE_BCE_2C13
CanSWE-BCE-2C14,FLOE LAKE,51.05,-116.13333,2090.0,CanSWEv6-British Columbia Environment,0,1,False,180,180,0.5752268950530487,0.5752268950530487,51.149998/-116.23333/50.95/-116.03333,51.05/-116.13333,CanSWE_BCE_2C14
CanSWE-BCE-2C20,VERMILION RIVER NO.3,51.216667,-116.066666,1570.0,CanSWEv6-British Columbia Environment,0,1,False,35,35,0.1118496740380928,0.1118496740380928,51.316666/-116.166664/51.11667/-115.96667,51.216667/-116.066666,CanSWE_BCE_2C20
CanSWE-BCE-2C21,VERMILION RIVER NO.4,51.216667,-116.066666,1680.0,CanSWEv6-British Columbia Environment,0,1,False,7,7,0.02236993480761856,0.02236993480761856,51.316666/-116.166664/51.11667/-115.96667,51.216667/-116.066666,CanSWE_BCE_2C21
CanSWE-BCE-2C22,VERMILION RIVER NO.5,51.2,-116.1,1570.0,CanSWEv6-British Columbia Environment,0,1,False,7,7,0.02236993480761856,0.02236993480761856,51.3/-116.2/51.100002/-116.0,51.2/-116.1,CanSWE_BCE_2C22
CanSWE-BCE-2D01,GERRARD,50.533333,-117.28333,1620.0,CanSWEv6-British Columbia Environment,0,1,False,2,2,0.006391409945033875,0.006391409945033875,50.63333/-117.38333/50.433334/-117.183334,50.533333/-117.28333,CanSWE_BCE_2D01
CanSWE-BCE-2D07,DUNCAN LAKE,50.266666,-116.96667,650.0,CanSWEv6-British Columbia Environment,0,1,False,49,49,0.15658954365332992,0.15658954365332992,50.366665/-117.066666/50.166668/-116.86667,50.266666/-116.96667,CanSWE_BCE_2D07
CanSWE-BCE-2D08,EAST CREEK,50.633335,-116.933334,2030.0,CanSWEv6-British Columbia Environment,0,1,False,88,88,0.28122203758149045,0.28122203758149045,50.733334/-117.03333/50.533337/-116.833336,50.633335/-116.933334,CanSWE_BCE_2D08
CanSWE-BCE-2D11,ARROW CREEK,49.25,-116.5,1620.0,CanSWEv6-British Columbia Environment,0,1,False,49,49,0.15658954365332992,0.15658954365332992,49.35/-116.6/49.15/-116.4,49.25/-116.5,CanSWE_BCE_2D11
CanSWE-BCE-2D12,HARLOW CREEK,50.183334,-117.566666,1920.0,CanSWEv6-British Columbia Environment,0,1,False,39,39,0.12463249392816055,0.12463249392816055,50.283333/-117.666664/50.083336/-117.46667,50.183334/-117.566666,CanSWE_BCE_2D12
CanSWE-BCE-2D13,MEADOW MOUNTAIN,50.233334,-117.05,1990.0,CanSWEv6-British Columbia Environment,0,1,False,15,15,0.04793557458775406,0.04793557458775406,50.333332/-117.15/50.133335/-116.950005,50.233334/-117.05,CanSWE_BCE_2D13
CanSWE-BCE-2E04,TRAPPING CR (UPPER),49.666668,-118.916664,1360.0,CanSWEv6-British Columbia Environment,0,1,False,39,39,0.12463249392816055,0.12463249392816055,49.766666/-119.01666/49.56667/-118.816666,49.666668/-118.916664,CanSWE_BCE_2E04
CanSWE-BCE-2E04A,TRAPPING CREEK (UPPER),49.666668,-118.916664,1350.0,CanSWEv6-British Columbia Environment,0,1,False,57,57,0.1821551834334654,0.1821551834334654,49.766666/-119.01666/49.56667/-118.816666,49.666668/-118.916664,CanSWE_BCE_2E04A
CanSWE-BCE-2E05,TRAPPING CREEK (LOWER),49.55,-119.05,930.0,CanSWEv6-British Columbia Environment,0,1,False,69,69,0.22050364310366868,0.22050364310366868,49.649998/-119.15/49.45/-118.950005,49.55/-119.05,CanSWE_BCE_2E05
CanSWE-BCE-2E06,BLUEJOINT MOUNTAIN,49.55,-118.53333,2040.0,CanSWEv6-British Columbia Environment,0,1,False,69,69,0.22050364310366868,0.22050364310366868,49.649998/-118.63333/49.45/-118.433334,49.55/-118.53333,CanSWE_BCE_2E06
CanSWE-BCE-2F01,TROUT CREEK,49.733334,-120.183334,1430.0,CanSWEv6-British Columbia Environment,0,1,False,182,182,0.5816183049980825,0.5816183049980825,49.833332/-120.28333/49.633335/-120.083336,49.733334/-120.183334,CanSWE_BCE_2F01
CanSWE-BCE-2F05,MISSION CREEK,49.95,-118.95,1780.0,CanSWEv6-British Columbia Environment,0,1,False,144,144,0.46018151604243895,0.46018151604243895,50.05/-119.049995/49.850002/-118.85,49.95/-118.95,CanSWE_BCE_2F05
CanSWE-BCE-2F06,BOULEAU CREEK,50.266666,-119.583336,1520.0,CanSWEv6-British Columbia Environment,0,1,False,1,1,0.0031957049725169374,0.0031957049725169374,50.366665/-119.683334/50.166668/-119.48334,50.266666/-119.583336,CanSWE_BCE_2F06
CanSWE-BCE-2F15,ESPERON CR (LOWER),50.066666,-119.666664,1340.0,CanSWEv6-British Columbia Environment,0,1,False,41,41,0.13102390387319443,0.13102390387319443,50.166664/-119.76666/49.966667/-119.566666,50.066666/-119.666664,CanSWE_BCE_2F15
CanSWE-BCE-2F17,CARRS LANDING (UPPER),50.133335,-119.4,980.0,CanSWEv6-British Columbia Environment,0,1,False,4,4,0.01278281989006775,0.01278281989006775,50.233334/-119.5/50.033337/-119.3,50.133335/-119.4,CanSWE_BCE_2F17
CanSWE-BCE-2F18,BRENDA MINE,49.866665,-119.98333,1460.0,CanSWEv6-British Columbia Environment,0,1,False,172,172,0.5496612552729132,0.5496612552729132,49.966663/-120.08333/49.766666/-119.88333,49.866665/-119.98333,CanSWE_BCE_2F18
CanSWE-BCE-2F22,PEARSON CREEK,49.883335,-119.066666,940.0,CanSWEv6-British Columbia Environment,0,1,False,65,65,0.20772082321360094,0.20772082321360094,49.983334/-119.166664/49.783337/-118.96667,49.883335/-119.066666,CanSWE_BCE_2F22
CanSWE-BCE-2G01A,SUNDAY SUMMIT,49.283333,-120.583336,1310.0,CanSWEv6-British Columbia Environment,0,1,False,74,74,0.23648216796625338,0.23648216796625338,49.38333/-120.683334/49.183334/-120.48334,49.283333/-120.583336,CanSWE_BCE_2G01A
CanSWE-BCE-2G02,NICKEL PLATE,49.383335,-120.03333,1890.0,CanSWEv6-British Columbia Environment,0,1,False,27,27,0.0862840342579573,0.0862840342579573,49.483334/-120.13333/49.283337/-119.933334,49.383335/-120.03333,CanSWE_BCE_2G02
CanSWE-BCE-2G02A,NICKEL PLATE,49.383335,-120.03333,1890.0,CanSWEv6-British Columbia Environment,0,1,False,4,4,0.01278281989006775,0.01278281989006775,49.483334/-120.13333/49.283337/-119.933334,49.383335/-120.03333,CanSWE_BCE_2G02A
CanSWE-BCE-2G03,BLACKWALL PEAK,49.1,-120.76667,1940.0,CanSWEv6-British Columbia Environment,0,1,False,100,99,0.31957049725169373,0.31637479227917675,49.199997/-120.86667/49.0/-120.66667,49.1/-120.76667,CanSWE_BCE_2G03
CanSWE-BCE-3A07,BURWELL LAKE,49.466667,-123.0,880.0,CanSWEv6-British Columbia Environment,0,1,False,6,6,0.019174229835101624,0.019174229835101624,49.566666/-123.1/49.36667/-122.9,49.466667/-123.0,CanSWE_BCE_3A07
CanSWE-BCE-3A08,HOLLYBURN,49.4,-123.183334,1100.0,CanSWEv6-British Columbia Environment,0,1,False,29,29,0.09267544420299118,0.09267544420299118,49.5/-123.28333/49.300003/-123.083336,49.4/-123.183334,CanSWE_BCE_3A08
CanSWE-BCE-3A11,LOCH LOMOND,49.583332,-123.083336,900.0,CanSWEv6-British Columbia Environment,0,1,False,6,6,0.019174229835101624,0.019174229835101624,49.68333/-123.183334/49.483334/-122.98334,49.583332/-123.083336,CanSWE_BCE_3A11
CanSWE-BCE-3A13,TATLAYOKO LAKE,51.6,-124.333336,1710.0,CanSWEv6-British Columbia Environment,0,1,False,122,122,0.38987600664706634,0.38987600664706634,51.699997/-124.433334/51.5/-124.23334,51.6/-124.333336,CanSWE_BCE_3A13
CanSWE-BCE-3A14,GARIBALDI LAKE,49.95,-123.083336,1620.0,CanSWEv6-British Columbia Environment,0,1,False,11,11,0.035152754697686306,0.035152754697686306,50.05/-123.183334/49.850002/-122.98334,49.95/-123.083336,CanSWE_BCE_3A14
CanSWE-BCE-3A15,MOUNT SEYMOUR,49.366665,-122.95,1070.0,CanSWEv6-British Columbia Environment,0,1,False,97,97,0.3099833823341429,0.3099833823341429,49.466663/-123.049995/49.266666/-122.85,49.366665/-122.95,CanSWE_BCE_3A15
CanSWE-BCE-3A16,WHISTLER MOUNTAIN,50.05,-123.0,1450.0,CanSWEv6-British Columbia Environment,0,1,False,98,98,0.31317908730665983,0.31317908730665983,50.149998/-123.1/49.95/-122.9,50.05/-123.0,CanSWE_BCE_3A16
CanSWE-BCE-3A17,TIEDEMANN GLACIER,51.35,-124.96667,1400.0,CanSWEv6-British Columbia Environment,0,1,False,37,37,0.11824108398312669,0.11824108398312669,51.449997/-125.066666/51.25/-124.86667,51.35/-124.96667,CanSWE_BCE_3A17
CanSWE-BCE-3A17P,TIEDEMANN GLACIER-PILLOW,51.35,-124.96667,1400.0,CanSWEv6-British Columbia Environment,2,1,False,2069,0,6.611913588137543,0.0,51.449997/-125.066666/51.25/-124.86667,51.35/-124.96667,CanSWE_BCE_3A17P
CanSWE-BCE-3A19P,ORCHID LAKE-PILLOW,49.533333,-123.05,1190.0,CanSWEv6-British Columbia Environment,2,1,False,132,0,0.4218330563722357,0.0,49.63333/-123.15/49.433334/-122.950005,49.533333/-123.05,CanSWE_BCE_3A19P
CanSWE-BCE-3A21,DIAMOND HEAD,49.766666,-123.03333,1420.0,CanSWEv6-British Columbia Environment,0,1,False,80,80,0.25565639780135496,0.25565639780135496,49.866665/-123.13333/49.666668/-122.933334,49.766666/-123.03333,CanSWE_BCE_3A21
CanSWE-BCE-3A22,NOSTETUKO RIVER,51.216667,-124.416664,1600.0,CanSWEv6-British Columbia Environment,0,1,False,19,19,0.060718394477821805,0.060718394477821805,51.316666/-124.51666/51.11667/-124.316666,51.216667/-124.416664,CanSWE_BCE_3A22
CanSWE-BCE-3A22A,NOSTETUKO RIVER,51.25,-124.45,1500.0,CanSWEv6-British Columbia Environment,0,1,False,12,12,0.03834845967020325,0.03834845967020325,51.35/-124.549995/51.15/-124.35,51.25/-124.45,CanSWE_BCE_3A22A
CanSWE-BCE-3A23P,FIVE FINGERS CREEK-PILLOW,51.533333,-124.9,1770.0,CanSWEv6-British Columbia Environment,2,1,False,1115,0,3.5632110443563847,0.0,51.63333/-125.0/51.433334/-124.8,51.533333/-124.9,CanSWE_BCE_3A23P
CanSWE-BCE-3B06,TRIPP MEADOWS,48.516666,-123.88333,820.0,CanSWEv6-British Columbia Environment,0,1,False,36,36,0.11504537901060974,0.11504537901060974,48.616665/-123.98333/48.416668/-123.78333,48.516666/-123.88333,CanSWE_BCE_3B06
CanSWE-BCE-3B12,LYFORD MOUNTAIN,48.866665,-124.46667,910.0,CanSWEv6-British Columbia Environment,0,1,False,9,9,0.028761344752652435,0.028761344752652435,48.966663/-124.566666/48.766666/-124.36667,48.866665/-124.46667,CanSWE_BCE_3B12
CanSWE-BCE-3B14,NEWCASTLE RIDGE,50.4,-126.05,1170.0,CanSWEv6-British Columbia Environment,0,1,False,123,123,0.39307171161958326,0.39307171161958326,50.5/-126.15/50.300003/-125.950005,50.4/-126.05,CanSWE_BCE_3B14
CanSWE-BCE-3B16,SNO-BIRD LAKE,49.05,-124.333336,1400.0,CanSWEv6-British Columbia Environment,0,1,False,166,166,0.5304870254378116,0.5304870254378116,49.149998/-124.433334/48.95/-124.23334,49.05/-124.333336,CanSWE_BCE_3B16
CanSWE-BCE-3B17,WOLF RIVER (UPPER),49.7,-125.666664,1490.0,CanSWEv6-British Columbia Environment,0,1,False,91,89,0.29080915249904127,0.2844177425540074,49.8/-125.76666/49.600002/-125.566666,49.7/-125.666664,CanSWE_BCE_3B17
CanSWE-BCE-3B20,SPROAT LAKE,49.3,-125.15,1220.0,CanSWEv6-British Columbia Environment,0,1,False,48,48,0.153393838680813,0.153393838680813,49.399998/-125.25/49.2/-125.05,49.3/-125.15,CanSWE_BCE_3B20
CanSWE-BCE-3B21,MARGARET LAKE,49.483334,-125.46667,1040.0,CanSWEv6-British Columbia Environment,0,1,False,48,48,0.153393838680813,0.153393838680813,49.583332/-125.566666/49.383335/-125.36667,49.483334/-125.46667,CanSWE_BCE_3B21
CanSWE-BCE-3B22,TENNENT LAKE,49.55,-125.63333,950.0,CanSWEv6-British Columbia Environment,0,1,False,97,97,0.3099833823341429,0.3099833823341429,49.649998/-125.73333/49.45/-125.53333,49.55/-125.63333,CanSWE_BCE_3B22
CanSWE-BCE-3B24,HEATHER MOUNTAIN UPPER,48.95667,-124.47972,681.0,CanSWEv6-British Columbia Environment,0,1,False,3,3,0.009587114917550812,0.009587114917550812,49.056667/-124.57972/48.85667/-124.37972,48.95667/-124.47972,CanSWE_BCE_3B24
CanSWE-BCE-3C02,BELLA COOLA,52.516666,-126.63333,1380.0,CanSWEv6-British Columbia Environment,0,1,False,1,1,0.0031957049725169374,0.0031957049725169374,52.616665/-126.73333/52.416668/-126.53333,52.516666/-126.63333,CanSWE_BCE_3C02
CanSWE-BCE-3C03,MACHMELL RIVER,51.766666,-126.066666,1380.0,CanSWEv6-British Columbia Environment,0,1,False,1,1,0.0031957049725169374,0.0031957049725169374,51.866665/-126.166664/51.666668/-125.96667,51.766666/-126.066666,CanSWE_BCE_3C03
CanSWE-BCE-3C04,WEDEENE RIVER,54.25,-128.75,340.0,CanSWEv6-British Columbia Environment,0,1,False,28,28,0.08947973923047424,0.08947973923047424,54.35/-128.85/54.15/-128.65,54.25/-128.75,CanSWE_BCE_3C04
CanSWE-BCE-3C05,BRADEN RIVER,52.6,-127.71667,300.0,CanSWEv6-British Columbia Environment,0,1,False,3,3,0.009587114917550812,0.009587114917550812,52.699997/-127.816666/52.5/-127.61667,52.6/-127.71667,CanSWE_BCE_3C05
CanSWE-BCE-3C06,LINK LAKE,52.4,-127.6,700.0,CanSWEv6-British Columbia Environment,0,1,False,4,4,0.01278281989006775,0.01278281989006775,52.5/-127.7/52.300003/-127.5,52.4/-127.6,CanSWE_BCE_3C06
CanSWE-BCE-3D01A,NEW TASHME,49.266666,-121.23333,700.0,CanSWEv6-British Columbia Environment,0,1,False,27,27,0.0862840342579573,0.0862840342579573,49.366665/-121.33333/49.166668/-121.13333,49.266666/-121.23333,CanSWE_BCE_3D01A
CanSWE-BCE-3D01B,SUMALLO RIVER,49.216667,-121.23333,880.0,CanSWEv6-British Columbia Environment,0,1,False,69,69,0.22050364310366868,0.22050364310366868,49.316666/-121.33333/49.11667/-121.13333,49.216667/-121.23333,CanSWE_BCE_3D01B
CanSWE-BCE-3D03,KLESILKWA,49.133335,-121.316666,610.0,CanSWEv6-British Columbia Environment,0,1,False,1,1,0.0031957049725169374,0.0031957049725169374,49.233334/-121.416664/49.033337/-121.21667,49.133335/-121.316666,CanSWE_BCE_3D03
CanSWE-BCE-4A01,MCLEOD LAKE,54.933334,-122.88333,980.0,CanSWEv6-British Columbia Environment,0,1,False,106,106,0.33874472708679537,0.33874472708679537,55.033333/-122.98333/54.833336/-122.78333,54.933334/-122.88333,CanSWE_BCE_4A01
CanSWE-BCE-4A08,IPEC LAKE,57.666668,-124.71667,1310.0,CanSWEv6-British Columbia Environment,0,1,False,55,55,0.17576377348843156,0.17576377348843156,57.766666/-124.816666/57.56667/-124.61667,57.666668/-124.71667,CanSWE_BCE_4A08
CanSWE-BCE-4A14,PINK MOUNTAIN,57.033333,-122.51667,1170.0,CanSWEv6-British Columbia Environment,0,1,False,108,108,0.3451361370318292,0.3451361370318292,57.13333/-122.61667/56.933334/-122.41667,57.033333/-122.51667,CanSWE_BCE_4A14
CanSWE-BCE-4A17,GERMANSEN (LOWER),55.783333,-124.7,750.0,CanSWEv6-British Columbia Environment,0,1,False,36,36,0.11504537901060974,0.11504537901060974,55.88333/-124.799995/55.683334/-124.6,55.783333/-124.7,CanSWE_BCE_4A17
CanSWE-BCE-4A19,MACKENZIE A,55.3,-123.13333,700.0,CanSWEv6-British Columbia Environment,0,1,False,132,132,0.4218330563722357,0.4218330563722357,55.399998/-123.23333/55.2/-123.03333,55.3/-123.13333,CanSWE_BCE_4A19
CanSWE-BCE-4A19A,MACKENZIE AIRPORT MANUAL SNOW COURSE (2003),55.18,-123.08,,CanSWEv6-British Columbia Environment,0,0,False,4,4,0.01278281989006775,0.01278281989006775,55.28/-123.18/55.08/-122.98,55.18/-123.08,CanSWE_BCE_4A19A
CanSWE-BCE-4A22,SUKUNKA RIVER,55.233334,-121.61667,1140.0,CanSWEv6-British Columbia Environment,0,1,False,18,18,0.05752268950530487,0.05752268950530487,55.333332/-121.71667/55.133335/-121.51667,55.233334/-121.61667,CanSWE_BCE_4A22
CanSWE-BCE-4A23,BEATTON RIVER,57.216667,-121.46667,820.0,CanSWEv6-British Columbia Environment,0,0,False,44,44,0.14061101879074522,0.14061101879074522,57.316666/-121.566666/57.11667/-121.36667,57.216667/-121.46667,CanSWE_BCE_4A23
CanSWE-BCE-4A24,WONOWON,56.733334,-121.8,910.0,CanSWEv6-British Columbia Environment,0,0,False,63,63,0.20132941326856701,0.20132941326856701,56.833332/-121.9/56.633335/-121.700005,56.733334/-121.8,CanSWE_BCE_4A24
CanSWE-BCE-4A26,PORTAGE MOUNTAIN,56.0,-122.183334,760.0,CanSWEv6-British Columbia Environment,0,1,False,25,25,0.07989262431292343,0.07989262431292343,56.1/-122.28333/55.9/-122.083336,56.0/-122.183334,CanSWE_BCE_4A26
CanSWE-BCE-4A27,KWADACHA RIVER,57.616665,-125.066666,1620.0,CanSWEv6-British Columbia Environment,0,1,False,66,66,0.21091652818611786,0.21091652818611786,57.716663/-125.166664/57.516666/-124.96667,57.616665/-125.066666,CanSWE_BCE_4A27
CanSWE-BCE-4A28,BULLHEAD MOUNTAIN,56.033333,-122.1,790.0,CanSWEv6-British Columbia Environment,0,1,False,124,124,0.3962674165921002,0.3962674165921002,56.13333/-122.2/55.933334/-122.0,56.033333/-122.1,CanSWE_BCE_4A28
CanSWE-BCE-4A29P,UPPER PARSNIP RIVER - PILLOW,54.6,-122.13333,790.0,CanSWEv6-British Columbia Environment,2,1,False,424,0,1.3549789083471815,0.0,54.699997/-122.23333/54.5/-122.03333,54.6/-122.13333,CanSWE_BCE_4A29P
CanSWE-BCE-4A31,BULLMOOSE CREEK,55.1,-121.51667,1570.0,CanSWEv6-British Columbia Environment,0,1,False,81,81,0.25885210277387194,0.25885210277387194,55.199997/-121.61667/55.0/-121.41667,55.1/-121.51667,CanSWE_BCE_4A31
CanSWE-BCE-4B11,BEAR PASS,56.1,-129.66667,460.0,CanSWEv6-British Columbia Environment,0,1,False,59,59,0.1885465933784993,0.1885465933784993,56.199997/-129.76668/56.0/-129.56667,56.1/-129.66667,CanSWE_BCE_4B11
CanSWE-BCE-4B12,GRANDUC MINE,56.216667,-130.06667,790.0,CanSWEv6-British Columbia Environment,0,1,False,55,55,0.17576377348843156,0.17576377348843156,56.316666/-130.16667/56.11667/-129.96666,56.216667/-130.06667,CanSWE_BCE_4B12
CanSWE-BCE-4B13,TERRACE A,54.466667,-128.58333,180.0,CanSWEv6-British Columbia Environment,0,1,False,31,31,0.09906685414802505,0.09906685414802505,54.566666/-128.68333/54.36667/-128.48332,54.466667/-128.58333,CanSWE_BCE_4B13
CanSWE-BCE-4C04,CASSIAR,59.316666,-129.83333,1390.0,CanSWEv6-British Columbia Environment,0,1,False,114,114,0.3643103668669308,0.3643103668669308,59.416664/-129.93333/59.216667/-129.73332,59.316666/-129.83333,CanSWE_BCE_4C04
CanSWE-BCE-4C06,MOUNT ROOSEVELT,58.466667,-125.36667,1330.0,CanSWEv6-British Columbia Environment,0,1,False,4,4,0.01278281989006775,0.01278281989006775,58.566666/-125.46667/58.36667/-125.26667,58.466667/-125.36667,CanSWE_BCE_4C06
CanSWE-BCE-4C07,GRAYLING RIVER,59.65,-125.53333,1250.0,CanSWEv6-British Columbia Environment,0,1,False,4,4,0.01278281989006775,0.01278281989006775,59.75/-125.63333/59.550003/-125.433334,59.65/-125.53333,CanSWE_BCE_4C07
CanSWE-BCE-4C08,TROUT RIVER,59.033333,-125.95,1400.0,CanSWEv6-British Columbia Environment,0,1,False,5,5,0.015978524862584685,0.015978524862584685,59.13333/-126.049995/58.933334/-125.85,59.033333/-125.95,CanSWE_BCE_4C08
CanSWE-BCE-4C09,DEADWOOD RIVER,59.25,-128.31667,1300.0,CanSWEv6-British Columbia Environment,0,1,False,13,13,0.041544164642720184,0.041544164642720184,59.35/-128.41667/59.15/-128.21666,59.25/-128.31667,CanSWE_BCE_4C09
CanSWE-BCE-4C09P,DEADWOOD RIVER-PILLOW,59.25,-128.31667,1300.0,CanSWEv6-British Columbia Environment,2,1,False,5421,0,17.323916656014315,0.0,59.35/-128.41667/59.15/-128.21666,59.25/-128.31667,CanSWE_BCE_4C09P
CanSWE-BCE-4C10,RABBIT RIVER,59.2,-127.2,1250.0,CanSWEv6-British Columbia Environment,0,1,False,5,5,0.015978524862584685,0.015978524862584685,59.3/-127.299995/59.100002/-127.1,59.2/-127.2,CanSWE_BCE_4C10
CanSWE-BCE-4C11,BLUFF CREEK,58.533333,-126.45,1040.0,CanSWEv6-British Columbia Environment,0,1,False,7,7,0.02236993480761856,0.02236993480761856,58.63333/-126.549995/58.433334/-126.35,58.533333/-126.45,CanSWE_BCE_4C11
CanSWE-BCE-4C11P,BLUFF CREEK - PILLOW,58.533333,-126.45,1040.0,CanSWEv6-British Columbia Environment,2,1,False,2457,0,7.851847117474114,0.0,58.63333/-126.549995/58.433334/-126.35,58.533333/-126.45,CanSWE_BCE_4C11P
CanSWE-BCE-4C12,TOAD RIVER,58.783333,-125.38333,1400.0,CanSWEv6-British Columbia Environment,0,1,False,4,4,0.01278281989006775,0.01278281989006775,58.88333/-125.48333/58.683334/-125.28333,58.783333/-125.38333,CanSWE_BCE_4C12
CanSWE-BCE-4C13,KLUACHESI LAKE,57.983334,-123.916664,1220.0,CanSWEv6-British Columbia Environment,0,1,False,4,4,0.01278281989006775,0.01278281989006775,58.083332/-124.01666/57.883335/-123.816666,57.983334/-123.916664,CanSWE_BCE_4C13
CanSWE-BCE-4C14,FROG RIVER,57.983334,-127.5,1480.0,CanSWEv6-British Columbia Environment,0,1,False,40,40,0.12782819890067748,0.12782819890067748,58.083332/-127.6/57.883335/-127.4,57.983334/-127.5,CanSWE_BCE_4C14
CanSWE-BCE-4C14P,FROG RIVER-PILLOW,57.983334,-127.5,1480.0,CanSWEv6-British Columbia Environment,2,1,False,1185,0,3.7869103924325707,0.0,58.083332/-127.6/57.883335/-127.4,57.983334/-127.5,CanSWE_BCE_4C14P
CanSWE-BCE-4D03,METAHAG CREEK,58.816666,-130.91667,1220.0,CanSWEv6-British Columbia Environment,0,0,False,9,9,0.028761344752652435,0.028761344752652435,58.916664/-131.01668/58.716667/-130.81667,58.816666/-130.91667,CanSWE_BCE_4D03
CanSWE-BCE-4D04,BEATTY CREEK,58.366665,-131.23334,1130.0,CanSWEv6-British Columbia Environment,0,1,False,10,10,0.03195704972516937,0.03195704972516937,58.466663/-131.33334/58.266666/-131.13333,58.366665/-131.23334,CanSWE_BCE_4D04
CanSWE-BCE-4D05,TAHLTAN LAKE,57.916668,-131.58333,1220.0,CanSWEv6-British Columbia Environment,0,1,False,9,9,0.028761344752652435,0.028761344752652435,58.016666/-131.68333/57.81667/-131.48332,57.916668/-131.58333,CanSWE_BCE_4D05
CanSWE-BCE-4D06,TRIUMPH CREEK,57.6,-132.3,1220.0,CanSWEv6-British Columbia Environment,0,1,False,10,10,0.03195704972516937,0.03195704972516937,57.699997/-132.40001/57.5/-132.2,57.6/-132.3,CanSWE_BCE_4D06
CanSWE-BCE-4D07,SCHAFT CREEK,57.366665,-130.96666,1140.0,CanSWEv6-British Columbia Environment,0,1,False,13,13,0.041544164642720184,0.041544164642720184,57.466663/-131.06667/57.266666/-130.86665,57.366665/-130.96666,CanSWE_BCE_4D07
CanSWE-BCE-4D08,FORREST-KERR CREEK,56.95,-130.78334,560.0,CanSWEv6-British Columbia Environment,0,1,False,36,36,0.11504537901060974,0.11504537901060974,57.05/-130.88335/56.850002/-130.68333,56.95/-130.78334,CanSWE_BCE_4D08
CanSWE-BCE-4D08P,FORREST-KERR CREEK-PILLOW,56.95,-130.78334,560.0,CanSWEv6-British Columbia Environment,2,1,False,2919,0,9.32826281477694,0.0,57.05/-130.88335/56.850002/-130.68333,56.95/-130.78334,CanSWE_BCE_4D08P
CanSWE-BCE-4D09,SNIPPAKER CREEK,56.566666,-130.71666,620.0,CanSWEv6-British Columbia Environment,0,1,False,29,29,0.09267544420299118,0.09267544420299118,56.666664/-130.81667/56.466667/-130.61665,56.566666/-130.71666,CanSWE_BCE_4D09
CanSWE-BCE-4D10,TUMEKA CREEK,57.233334,-129.71666,1220.0,CanSWEv6-British Columbia Environment,0,1,False,53,53,0.16937236354339769,0.16937236354339769,57.333332/-129.81667/57.133335/-129.61665,57.233334/-129.71666,CanSWE_BCE_4D10
CanSWE-BCE-4D11,KINASKAN LAKE,57.566666,-130.25,1020.0,CanSWEv6-British Columbia Environment,0,1,False,41,41,0.13102390387319443,0.13102390387319443,57.666664/-130.35/57.466667/-130.15,57.566666/-130.25,CanSWE_BCE_4D11
CanSWE-BCE-4D12,EAGLENEST CREEK,57.616665,-129.01666,1540.0,CanSWEv6-British Columbia Environment,0,1,False,32,32,0.102262559120542,0.102262559120542,57.716663/-129.11667/57.516666/-128.91666,57.616665/-129.01666,CanSWE_BCE_4D12
CanSWE-BCE-4D13,UPPER STIKINE,57.233334,-128.31667,1450.0,CanSWEv6-British Columbia Environment,0,1,False,49,49,0.15658954365332992,0.15658954365332992,57.333332/-128.41667/57.133335/-128.21666,57.233334/-128.31667,CanSWE_BCE_4D13
CanSWE-BCE-4D13P,UPPER STIKINE-PILLOW,57.233334,-128.31667,1450.0,CanSWEv6-British Columbia Environment,2,1,False,2727,0,8.714687460053689,0.0,57.333332/-128.41667/57.133335/-128.21666,57.233334/-128.31667,CanSWE_BCE_4D13P
CanSWE-BCE-4D14,WADE LAKE,58.183334,-128.9,1370.0,CanSWEv6-British Columbia Environment,0,1,False,39,39,0.12463249392816055,0.12463249392816055,58.283333/-129.0/58.083336/-128.79999,58.183334/-128.9,CanSWE_BCE_4D14
CanSWE-BCE-4D14P,WADE LAKE-PILLOW,58.183334,-128.9,1370.0,CanSWEv6-British Columbia Environment,2,1,False,6024,0,19.25092675444203,0.0,58.283333/-129.0/58.083336/-128.79999,58.183334/-128.9,CanSWE_BCE_4D14P
CanSWE-BCE-4D15,BOUNDARY,56.7,-131.83333,470.0,CanSWEv6-British Columbia Environment,0,1,False,11,11,0.035152754697686306,0.035152754697686306,56.8/-131.93333/56.600002/-131.73332,56.7/-131.83333,CanSWE_BCE_4D15
CanSWE-BCE-4E02A,ATLIN LAKE,59.566666,-133.7,730.0,CanSWEv6-British Columbia Environment,0,1,False,105,105,0.33554902211427845,0.33554902211427845,59.666664/-133.8/59.466667/-133.59999,59.566666/-133.7,CanSWE_BCE_4E02A
CanSWE-BCE-4E03,STANLEY CREEK,59.933334,-136.8,930.0,CanSWEv6-British Columbia Environment,0,1,False,51,51,0.1629809535983638,0.1629809535983638,60.033333/-136.90001/59.833336/-136.7,59.933334/-136.8,CanSWE_BCE_4E03
CanSWE-BCE-WA10,FREEZEOUT MEADOW (NEW),48.866665,-120.85,1520.0,CanSWEv6-British Columbia Environment,0,1,False,28,28,0.08947973923047424,0.08947973923047424,48.966663/-120.95/48.766666/-120.75,48.866665/-120.85,CanSWE_BCE_WA10
CanSWE-BCE-WA12,BEAVER PASS,48.916668,-121.3,1120.0,CanSWEv6-British Columbia Environment,0,1,False,114,114,0.3643103668669308,0.3643103668669308,49.016666/-121.4/48.81667/-121.200005,48.916668/-121.3,CanSWE_BCE_WA12
CanSWE-BCE-WA13,EASY PASS,48.866665,-121.433334,1580.0,CanSWEv6-British Columbia Environment,0,1,False,72,71,0.23009075802121948,0.22689505304870256,48.966663/-121.53333/48.766666/-121.333336,48.866665/-121.433334,CanSWE_BCE_WA13
CanSWE-BCE-WA14,PANORAMA NEW,48.866665,-121.6,1310.0,CanSWEv6-British Columbia Environment,0,1,False,11,11,0.035152754697686306,0.035152754697686306,48.966663/-121.7/48.766666/-121.5,48.866665/-121.6,CanSWE_BCE_WA14
CanSWE-CHURCHILL-Anderson,ANDERSON,52.0208,-63.5676,501.9,CanSWEv6-Churchill Falls,0,0,False,164,164,0.5240956154927777,0.5240956154927777,52.1208/-63.6676/51.920803/-63.4676,52.0208/-63.5676,CanSWE_CHURCHILL_Anderson
CanSWE-CHURCHILL-Churchill Falls,CHURCHILL FALLS,53.566666,-64.11667,457.0,CanSWEv6-Churchill Falls,0,0,False,166,166,0.5304870254378116,0.5304870254378116,53.666664/-64.21667/53.466667/-64.01667,53.566666/-64.11667,CanSWE_CHURCHILL_Churchill_Falls
CanSWE-CHURCHILL-Esker,ESKER,53.8618,-66.4125,494.0,CanSWEv6-Churchill Falls,0,0,False,164,164,0.5240956154927777,0.5240956154927777,53.9618/-66.5125/53.761803/-66.3125,53.8618/-66.4125,CanSWE_CHURCHILL_Esker
CanSWE-CHURCHILL-Fig West,FIG WEST,53.2025,-64.0059,473.0,CanSWEv6-Churchill Falls,0,0,False,165,165,0.5272913204652946,0.5272913204652946,53.302498/-64.105896/53.1025/-63.9059,53.2025/-64.0059,CanSWE_CHURCHILL_Fig_West
CanSWE-CHURCHILL-Kepimits,KEPIMITS,52.6542,-64.8417,502.7,CanSWEv6-Churchill Falls,0,0,False,163,163,0.5208999105202607,0.5208999105202607,52.7542/-64.941696/52.554203/-64.7417,52.6542/-64.8417,CanSWE_CHURCHILL_Kepimits
CanSWE-CHURCHILL-Lac Joseph,LAC-JOSEPH,52.9803,-65.5437,532.0,CanSWEv6-Churchill Falls,0,0,False,164,164,0.5240956154927777,0.5240956154927777,53.0803/-65.6437/52.880302/-65.4437,52.9803/-65.5437,CanSWE_CHURCHILL_Lac_Joseph
CanSWE-CHURCHILL-Lac Long,LAC-LONG,52.606,-63.8572,542.9,CanSWEv6-Churchill Falls,0,0,False,163,163,0.5208999105202607,0.5208999105202607,52.705997/-63.9572/52.506/-63.757202,52.606/-63.8572,CanSWE_CHURCHILL_Lac_Long
CanSWE-CHURCHILL-Lobstick,LOBSTICK,53.8372,-65.0413,475.6,CanSWEv6-Churchill Falls,0,0,False,168,168,0.5368784353828455,0.5368784353828455,53.9372/-65.1413/53.7372/-64.9413,53.8372/-65.0413,CanSWE_CHURCHILL_Lobstick
CanSWE-CHURCHILL-McKenzie,MCKENZIE,54.5755,-65.5313,508.3,CanSWEv6-Churchill Falls,0,0,False,153,153,0.4889428607950914,0.4889428607950914,54.6755/-65.6313/54.475502/-65.431305,54.5755/-65.5313,CanSWE_CHURCHILL_McKenzie
CanSWE-CHURCHILL-McPhadyen,MCPHADYEN,54.1952,-67.147,549.0,CanSWEv6-Churchill Falls,0,0,False,166,166,0.5304870254378116,0.5304870254378116,54.2952/-67.247/54.095203/-67.047005,54.1952/-67.147,CanSWE_CHURCHILL_McPhadyen
CanSWE-CHURCHILL-Metchin,METCHIN,53.4383,-63.2624,345.4,CanSWEv6-Churchill Falls,0,0,False,160,160,0.5113127956027099,0.5113127956027099,53.5383/-63.3624/53.338303/-63.162403,53.4383/-63.2624,CanSWE_CHURCHILL_Metchin
CanSWE-CHURCHILL-Michikamats,MICHIKAMATS,54.564,-64.122,521.0,CanSWEv6-Churchill Falls,0,0,False,162,162,0.5177042055477439,0.5177042055477439,54.663998/-64.222/54.464/-64.022,54.564/-64.122,CanSWE_CHURCHILL_Michikamats
CanSWE-CHURCHILL-Orma,ORMA LAKE,54.1455,-63.1807,477.0,CanSWEv6-Churchill Falls,0,0,False,161,161,0.5145085005752269,0.5145085005752269,54.2455/-63.280697/54.0455/-63.0807,54.1455/-63.1807,CanSWE_CHURCHILL_Orma
CanSWE-CHURCHILL-Seahorse,SEAHORSE,52.1665,-65.7358,631.0,CanSWEv6-Churchill Falls,0,0,False,163,163,0.5208999105202607,0.5208999105202607,52.2665/-65.8358/52.0665/-65.6358,52.1665/-65.7358,CanSWE_CHURCHILL_Seahorse
CanSWE-CHURCHILL-Simms,SIMMS,53.775,-65.8158,488.8,CanSWEv6-Churchill Falls,0,0,False,166,166,0.5304870254378116,0.5304870254378116,53.875/-65.9158/53.675003/-65.715805,53.775/-65.8158,CanSWE_CHURCHILL_Simms
CanSWE-CHURCHILL-Twin Falls,TWIN FALLS,53.6017,-64.6,459.6,CanSWEv6-Churchill Falls,0,0,False,169,169,0.5400741403553624,0.5400741403553624,53.7017/-64.7/53.5017/-64.5,53.6017/-64.6,CanSWE_CHURCHILL_Twin_Falls
CanSWE-CHURCHILL-Wabush,WABUSH,52.9533,-66.68,571.0,CanSWEv6-Churchill Falls,0,0,False,164,164,0.5240956154927777,0.5240956154927777,53.0533/-66.78/52.853302/-66.58,52.9533/-66.68,CanSWE_CHURCHILL_Wabush
CanSWE-ENB-002,BATHURST,47.65,-65.7,15.0,CanSWEv6-Environment New Brunswick,0,0,False,32,36,0.102262559120542,0.11504537901060974,47.75/-65.799995/47.550003/-65.6,47.65/-65.7,CanSWE_ENB_002
CanSWE-ENB-005,BEECHWOOD (F),46.55,-67.63333,152.0,CanSWEv6-Environment New Brunswick,0,0,False,75,76,0.2396778729387703,0.24287357791128722,46.649998/-67.73333/46.45/-67.53333,46.55/-67.63333,CanSWE_ENB_005
CanSWE-ENB-006,BEECHWOOD (O),46.55,-67.63333,152.0,CanSWEv6-Environment New Brunswick,0,0,False,71,72,0.22689505304870256,0.23009075802121948,46.649998/-67.73333/46.45/-67.53333,46.55/-67.63333,CanSWE_ENB_006
CanSWE-ENB-009,CASTAWAY (F),46.283333,-65.73333,40.0,CanSWEv6-Environment New Brunswick,0,0,False,35,35,0.1118496740380928,0.1118496740380928,46.38333/-65.83333/46.183334/-65.63333,46.283333/-65.73333,CanSWE_ENB_009
CanSWE-ENB-010,CASTAWAY (O),46.283333,-65.73333,40.0,CanSWEv6-Environment New Brunswick,0,0,False,39,39,0.12463249392816055,0.12463249392816055,46.38333/-65.83333/46.183334/-65.63333,46.283333/-65.73333,CanSWE_ENB_010
CanSWE-ENB-011,CHARLO AIRPORT,48.0,-66.333336,38.0,CanSWEv6-Environment New Brunswick,0,0,False,134,134,0.42822446631726957,0.42822446631726957,48.1/-66.433334/47.9/-66.23334,48.0/-66.333336,CanSWE_ENB_011
CanSWE-ENB-012,CHATHAM DND,47.016666,-65.433334,34.0,CanSWEv6-Environment New Brunswick,0,0,False,196,196,0.6263581746133197,0.6263581746133197,47.116665/-65.53333/46.916668/-65.333336,47.016666/-65.433334,CanSWE_ENB_012
CanSWE-ENB-013,CLAIR,47.266666,-68.61667,215.0,CanSWEv6-Environment New Brunswick,0,0,False,96,98,0.306787677361626,0.31317908730665983,47.366665/-68.71667/47.166668/-68.51667,47.266666/-68.61667,CanSWE_ENB_013
CanSWE-ENB-014,COAL BRANCH,46.433334,-65.083336,61.0,CanSWEv6-Environment New Brunswick,0,0,False,40,43,0.12782819890067748,0.1374153138182283,46.533333/-65.183334/46.333336/-64.98334,46.433334/-65.083336,CanSWE_ENB_014
CanSWE-ENB-015,CONNORS,47.233334,-68.8,250.0,CanSWEv6-Environment New Brunswick,0,0,False,96,96,0.306787677361626,0.306787677361626,47.333332/-68.9/47.133335/-68.700005,47.233334/-68.8,CanSWE_ENB_015
CanSWE-ENB-016,ELMCROFT (AVG),45.266666,-66.816666,90.0,CanSWEv6-Environment New Brunswick,0,0,False,41,40,0.13102390387319443,0.12782819890067748,45.366665/-66.916664/45.166668/-66.71667,45.266666/-66.816666,CanSWE_ENB_016
CanSWE-ENB-017,ELMCROFT (F),45.266666,-66.816666,90.0,CanSWEv6-Environment New Brunswick,0,0,False,13,13,0.041544164642720184,0.041544164642720184,45.366665/-66.916664/45.166668/-66.71667,45.266666/-66.816666,CanSWE_ENB_017
CanSWE-ENB-018,ELMCROFT (O),45.266666,-66.816666,90.0,CanSWEv6-Environment New Brunswick,0,0,False,15,15,0.04793557458775406,0.04793557458775406,45.366665/-66.916664/45.166668/-66.71667,45.266666/-66.816666,CanSWE_ENB_018
CanSWE-ENB-020,FREDERICTON,45.916668,-66.61667,40.0,CanSWEv6-Environment New Brunswick,0,0,False,151,160,0.4825514508500575,0.5113127956027099,46.016666/-66.71667/45.81667/-66.51667,45.916668/-66.61667,CanSWE_ENB_020
CanSWE-ENB-024,GRAND RIVER (F),47.2,-67.95,137.0,CanSWEv6-Environment New Brunswick,0,0,False,82,81,0.26204780774638886,0.25885210277387194,47.3/-68.049995/47.100002/-67.85,47.2/-67.95,CanSWE_ENB_024
CanSWE-ENB-025,GRAND RIVER (O),47.2,-67.083336,137.0,CanSWEv6-Environment New Brunswick,0,0,False,78,78,0.2492649878563211,0.2492649878563211,47.3/-67.183334/47.100002/-66.98334,47.2/-67.083336,CanSWE_ENB_025
CanSWE-ENB-027,GREEN RIVER (F),47.45,-68.26667,335.0,CanSWEv6-Environment New Brunswick,0,0,False,75,75,0.2396778729387703,0.2396778729387703,47.55/-68.36667/47.350002/-68.16667,47.45/-68.26667,CanSWE_ENB_027
CanSWE-ENB-028,GREEN RIVER (O),47.45,-68.26667,335.0,CanSWEv6-Environment New Brunswick,0,0,False,72,72,0.23009075802121948,0.23009075802121948,47.55/-68.36667/47.350002/-68.16667,47.45/-68.26667,CanSWE_ENB_028
CanSWE-ENB-031,HAYDEN BROOK,46.3,-67.3,260.0,CanSWEv6-Environment New Brunswick,0,0,False,15,15,0.04793557458775406,0.04793557458775406,46.399998/-67.4/46.2/-67.200005,46.3/-67.3,CanSWE_ENB_031
CanSWE-ENB-035,JACQUET,47.883335,-66.03333,61.0,CanSWEv6-Environment New Brunswick,0,0,False,32,36,0.102262559120542,0.11504537901060974,47.983334/-66.13333/47.783337/-65.933334,47.883335/-66.03333,CanSWE_ENB_035
CanSWE-ENB-037,LEPREAU,45.166668,-66.48333,30.0,CanSWEv6-Environment New Brunswick,0,0,False,47,47,0.15019813370829607,0.15019813370829607,45.266666/-66.58333/45.06667/-66.38333,45.166668/-66.48333,CanSWE_ENB_037
CanSWE-ENB-039,LYTTLETON,46.933334,-65.916664,23.0,CanSWEv6-Environment New Brunswick,0,0,False,34,37,0.10865396906557585,0.11824108398312669,47.033333/-66.01666/46.833336/-65.816666,46.933334/-65.916664,CanSWE_ENB_039
CanSWE-ENB-043,MIDDLE BROOK,46.283333,-67.01667,293.0,CanSWEv6-Environment New Brunswick,0,0,False,32,32,0.102262559120542,0.102262559120542,46.38333/-67.11667/46.183334/-66.91667,46.283333/-67.01667,CanSWE_ENB_043
CanSWE-ENB-044,MONCTON,46.066666,-64.6,45.0,CanSWEv6-Environment New Brunswick,0,0,False,38,40,0.12143678895564361,0.12782819890067748,46.166664/-64.7/45.966667/-64.5,46.066666/-64.6,CanSWE_ENB_044
CanSWE-ENB-045,MOUNT CARLETON,47.433334,-66.916664,259.0,CanSWEv6-Environment New Brunswick,0,0,False,305,305,0.9746900166176659,0.9746900166176659,47.533333/-67.01666/47.333336/-66.816666,47.433334/-66.916664,CanSWE_ENB_045
CanSWE-ENB-046,NASHWAAK,46.283333,-67.05,330.0,CanSWEv6-Environment New Brunswick,0,0,False,10,10,0.03195704972516937,0.03195704972516937,46.38333/-67.15/46.183334/-66.950005,46.283333/-67.05,CanSWE_ENB_046
CanSWE-ENB-048,PABINEAU FALLS,47.466667,-65.666664,30.0,CanSWEv6-Environment New Brunswick,0,0,False,30,34,0.09587114917550812,0.10865396906557585,47.566666/-65.76666/47.36667/-65.566666,47.466667/-65.666664,CanSWE_ENB_048
CanSWE-ENB-049,POINT WOLFE (LOWER),45.583332,-64.96667,91.0,CanSWEv6-Environment New Brunswick,0,0,False,45,48,0.14380672376326217,0.153393838680813,45.68333/-65.066666/45.483334/-64.86667,45.583332/-64.96667,CanSWE_ENB_049
CanSWE-ENB-050,POINT WOLFE (UPPER),45.616665,-65.05,366.0,CanSWEv6-Environment New Brunswick,0,0,False,71,71,0.22689505304870256,0.22689505304870256,45.716663/-65.15/45.516666/-64.950005,45.616665/-65.05,CanSWE_ENB_050
CanSWE-ENB-052,RENOUS,46.15,-66.11667,69.0,CanSWEv6-Environment New Brunswick,0,0,False,14,18,0.04473986961523712,0.05752268950530487,46.25/-66.21667/46.050003/-66.01667,46.15/-66.11667,CanSWE_ENB_052
CanSWE-ENB-053,RESTIGOUCHE,47.666668,-67.433334,274.0,CanSWEv6-Environment New Brunswick,0,0,False,35,35,0.1118496740380928,0.1118496740380928,47.766666/-67.53333/47.56667/-67.333336,47.666668/-67.433334,CanSWE_ENB_053
CanSWE-ENB-054,ROYAL ROAD,46.05,-66.71667,114.0,CanSWEv6-Environment New Brunswick,0,0,False,121,126,0.3866803016745494,0.40265882653713403,46.149998/-66.816666/45.95/-66.61667,46.05/-66.71667,CanSWE_ENB_054
CanSWE-ENB-058A,SISSON RIDGE (F),46.933334,-67.433334,305.0,CanSWEv6-Environment New Brunswick,0,0,False,9,9,0.028761344752652435,0.028761344752652435,47.033333/-67.53333/46.833336/-67.333336,46.933334/-67.433334,CanSWE_ENB_058A
CanSWE-ENB-058B,SISSON RIDGE (O),46.933334,-67.433334,305.0,CanSWEv6-Environment New Brunswick,0,0,False,9,9,0.028761344752652435,0.028761344752652435,47.033333/-67.53333/46.833336/-67.333336,46.933334/-67.433334,CanSWE_ENB_058B
CanSWE-ENB-060,ST FRANCIS,47.2,-68.95,152.0,CanSWEv6-Environment New Brunswick,0,0,False,89,89,0.2844177425540074,0.2844177425540074,47.3/-69.049995/47.100002/-68.85,47.2/-68.95,CanSWE_ENB_060
CanSWE-ENB-061A,ST JACQUES (F),47.45,-68.4,152.0,CanSWEv6-Environment New Brunswick,0,0,False,11,11,0.035152754697686306,0.035152754697686306,47.55/-68.5/47.350002/-68.3,47.45/-68.4,CanSWE_ENB_061A
CanSWE-ENB-061B,ST JACQUES (O),47.45,-68.4,152.0,CanSWEv6-Environment New Brunswick,0,0,False,10,10,0.03195704972516937,0.03195704972516937,47.55/-68.5/47.350002/-68.3,47.45/-68.4,CanSWE_ENB_061B
CanSWE-ENB-066,SUSSEX (O),45.733334,-65.46667,30.0,CanSWEv6-Environment New Brunswick,0,0,False,51,51,0.1629809535983638,0.1629809535983638,45.833332/-65.566666/45.633335/-65.36667,45.733334/-65.46667,CanSWE_ENB_066
CanSWE-ENB-072,TURTLE,45.966667,-64.88333,76.0,CanSWEv6-Environment New Brunswick,0,0,False,24,27,0.0766969193404065,0.0862840342579573,46.066666/-64.98333/45.86667/-64.78333,45.966667/-64.88333,CanSWE_ENB_072
CanSWE-ENB-073,UPSALQUITCH,47.85,-66.916664,39.0,CanSWEv6-Environment New Brunswick,0,0,False,35,35,0.1118496740380928,0.1118496740380928,47.949997/-67.01666/47.75/-66.816666,47.85/-66.916664,CanSWE_ENB_073
CanSWE-ENB-074,VANCEBORO,45.55,-67.48333,122.0,CanSWEv6-Environment New Brunswick,0,0,False,7,7,0.02236993480761856,0.02236993480761856,45.649998/-67.58333/45.45/-67.38333,45.55/-67.48333,CanSWE_ENB_074
CanSWE-ENB-076,WELSFORD (F),45.5,-66.316666,23.0,CanSWEv6-Environment New Brunswick,0,0,False,111,111,0.35472325194938004,0.35472325194938004,45.6/-66.416664/45.4/-66.21667,45.5/-66.316666,CanSWE_ENB_076
CanSWE-ENB-078,MOUNT PISGAH,45.817,-65.433,80.9,CanSWEv6-Environment New Brunswick,0,0,False,61,65,0.19493800332353317,0.20772082321360094,45.917/-65.533/45.717003/-65.333,45.817/-65.433,CanSWE_ENB_078
CanSWE-ENB-080,WARDS CREEK,45.65,-65.51667,85.0,CanSWEv6-Environment New Brunswick,0,0,False,5,5,0.015978524862584685,0.015978524862584685,45.75/-65.61667/45.550003/-65.41667,45.65/-65.51667,CanSWE_ENB_080
CanSWE-ENB-081,ALLAGASH B,47.1,-69.0,247.0,CanSWEv6-Environment New Brunswick,0,0,False,47,47,0.15019813370829607,0.15019813370829607,47.199997/-69.1/47.0/-68.9,47.1/-69.0,CanSWE_ENB_081
CanSWE-ENB-082,ASHLAND,46.633335,-68.416664,172.0,CanSWEv6-Environment New Brunswick,0,0,False,6,6,0.019174229835101624,0.019174229835101624,46.733334/-68.51666/46.533337/-68.316666,46.633335/-68.416664,CanSWE_ENB_082
CanSWE-ENB-089,ROYAL ROAD EAST,46.066666,-66.71667,130.0,CanSWEv6-Environment New Brunswick,0,0,False,61,62,0.19493800332353317,0.1981337082960501,46.166664/-66.816666/45.966667/-66.61667,46.066666/-66.71667,CanSWE_ENB_089
CanSWE-ENB-100,WINTERVILLE,46.95,-68.53333,335.0,CanSWEv6-Environment New Brunswick,0,0,False,21,21,0.06710980442285569,0.06710980442285569,47.05/-68.63333/46.850002/-68.433334,46.95/-68.53333,CanSWE_ENB_100
CanSWE-ENB-FA,FAWSET (AVG),45.991,-65.172,56.8,CanSWEv6-Environment New Brunswick,0,0,False,35,37,0.1118496740380928,0.11824108398312669,46.091/-65.271996/45.891003/-65.072,45.991/-65.172,CanSWE_ENB_FA
CanSWE-ENB-DDG,DIGDEGUASH,45.18,-66.96,17.0,CanSWEv6-Environment New Brunswick,0,0,False,24,24,0.0766969193404065,0.0766969193404065,45.28/-67.06/45.08/-66.86,45.18/-66.96,CanSWE_ENB_DDG
CanSWE-ENB-UT,UTOPIA,45.15,-66.77,27.0,CanSWEv6-Environment New Brunswick,0,0,False,24,24,0.0766969193404065,0.0766969193404065,45.25/-66.869995/45.050003/-66.67,45.15/-66.77,CanSWE_ENB_UT
CanSWE-INA-07OB01,HAY RIVER A,60.833332,-115.78333,166.0,CanSWEv6-Crown-Indigenous Relations and Northern Affairs Canada,0,0,False,203,204,0.6487281094209383,0.6519238143934551,60.93333/-115.88333/60.733334/-115.683334,60.833332/-115.78333,CanSWE_INA_07OB01
CanSWE-INA-07PA02,CANYON CREEK,65.2,-126.583336,,CanSWEv6-Crown-Indigenous Relations and Northern Affairs Canada,0,0,False,4,4,0.01278281989006775,0.01278281989006775,65.299995/-126.683334/65.1/-126.48334,65.2/-126.583336,CanSWE_INA_07PA02
CanSWE-INA-07PB01,LITTLE BUFFALO RIVER,60.033333,-112.7,220.0,CanSWEv6-Crown-Indigenous Relations and Northern Affairs Canada,0,0,False,3,3,0.009587114917550812,0.009587114917550812,60.13333/-112.799995/59.933334/-112.6,60.033333/-112.7,CanSWE_INA_07PB01
CanSWE-INA-07QB01,FORT RELIANCE,62.716667,-109.166664,159.0,CanSWEv6-Crown-Indigenous Relations and Northern Affairs Canada,0,0,False,324,327,1.0354084110954878,1.0449955260130384,62.816666/-109.26666/62.61667/-109.066666,62.716667/-109.166664,CanSWE_INA_07QB01
CanSWE-INA-07QB02,LAC DUHAMEL,62.333332,-110.65,165.0,CanSWEv6-Crown-Indigenous Relations and Northern Affairs Canada,0,0,False,3,3,0.009587114917550812,0.009587114917550812,62.43333/-110.75/62.233334/-110.55,62.333332/-110.65,CanSWE_INA_07QB02
CanSWE-INA-07QC01,DUNVEGEN LAKE,62.333332,-107.28333,490.0,CanSWEv6-Crown-Indigenous Relations and Northern Affairs Canada,0,0,False,25,25,0.07989262431292343,0.07989262431292343,62.43333/-107.38333/62.233334/-107.183334,62.333332/-107.28333,CanSWE_INA_07QC01
CanSWE-INA-07QC04A,HILL ISLAND LAKE OLD,60.583332,-109.96667,335.0,CanSWEv6-Crown-Indigenous Relations and Northern Affairs Canada,0,0,False,3,3,0.009587114917550812,0.009587114917550812,60.68333/-110.066666/60.483334/-109.86667,60.583332/-109.96667,CanSWE_INA_07QC04A
CanSWE-INA-07QD04B,GRAY LAKE B,61.85,-108.38333,320.0,CanSWEv6-Crown-Indigenous Relations and Northern Affairs Canada,0,0,False,8,8,0.0255656397801355,0.0255656397801355,61.949997/-108.48333/61.75/-108.28333,61.85/-108.38333,CanSWE_INA_07QD04B
CanSWE-INA-07QD04C,GRAY LAKE C,61.85,-108.35,354.0,CanSWEv6-Crown-Indigenous Relations and Northern Affairs Canada,0,0,False,15,15,0.04793557458775406,0.04793557458775406,61.949997/-108.45/61.75/-108.25,61.85/-108.35,CanSWE_INA_07QD04C
CanSWE-INA-07SA04C,SNARE LAKE C,64.183334,-114.1,360.0,CanSWEv6-Crown-Indigenous Relations and Northern Affairs Canada,0,0,False,1,1,0.0031957049725169374,0.0031957049725169374,64.28333/-114.2/64.083336/-114.0,64.183334/-114.1,CanSWE_INA_07SA04C
CanSWE-INA-07SA06,LONG LEGS LAKE,64.76667,-113.76667,430.0,CanSWEv6-Crown-Indigenous Relations and Northern Affairs Canada,0,0,False,3,5,0.009587114917550812,0.015978524862584685,64.86667/-113.86667/64.66667/-113.66667,64.76667/-113.76667,CanSWE_INA_07SA06
CanSWE-INA-07SA08,BIG LAKE,65.333336,-113.55,,CanSWEv6-Crown-Indigenous Relations and Northern Affairs Canada,0,0,False,7,7,0.02236993480761856,0.02236993480761856,65.433334/-113.65/65.23334/-113.450005,65.333336/-113.55,CanSWE_INA_07SA08
CanSWE-INA-07TA01,LAC LA MARTRE ROAD,63.1,-117.1,274.0,CanSWEv6-Crown-Indigenous Relations and Northern Affairs Canada,0,0,False,3,4,0.009587114917550812,0.01278281989006775,63.199997/-117.2/63.0/-117.0,63.1/-117.1,CanSWE_INA_07TA01
CanSWE-INA-10EA01,TUNGSTEN,61.95,-128.25,1175.0,CanSWEv6-Crown-Indigenous Relations and Northern Affairs Canada,0,1,False,34,34,0.10865396906557585,0.10865396906557585,62.05/-128.35/61.850002/-128.15,61.95/-128.25,CanSWE_INA_10EA01
CanSWE-INA-10ED02,LIARD JUNCTION,61.466667,-121.23333,213.0,CanSWEv6-Crown-Indigenous Relations and Northern Affairs Canada,0,0,False,28,30,0.08947973923047424,0.09587114917550812,61.566666/-121.33333/61.36667/-121.13333,61.466667/-121.23333,CanSWE_INA_10ED02
CanSWE-INA-10FA01,TROUT LAKE TOWER,60.433334,-121.21667,152.0,CanSWEv6-Crown-Indigenous Relations and Northern Affairs Canada,0,0,False,11,11,0.035152754697686306,0.035152754697686306,60.533333/-121.316666/60.333336/-121.11667,60.433334/-121.21667,CanSWE_INA_10FA01
CanSWE-INA-10HA01,TSICHU RIVER,63.3,-129.83333,1265.0,CanSWEv6-Crown-Indigenous Relations and Northern Affairs Canada,0,1,False,24,24,0.0766969193404065,0.0766969193404065,63.399998/-129.93333/63.2/-129.73332,63.3/-129.83333,CanSWE_INA_10HA01
CanSWE-INA-10HC01,WRIGLEY,63.2,-123.416664,149.0,CanSWEv6-Crown-Indigenous Relations and Northern Affairs Canada,0,1,False,33,38,0.10545826409305893,0.12143678895564361,63.3/-123.51666/63.100002/-123.316666,63.2/-123.416664,CanSWE_INA_10HC01
CanSWE-INA-10KA02,GREAT BEAR RIVER SOUTH,64.916664,-125.916664,150.0,CanSWEv6-Crown-Indigenous Relations and Northern Affairs Canada,0,0,False,1,1,0.0031957049725169374,0.0031957049725169374,65.01666/-126.01666/64.816666/-125.816666,64.916664/-125.916664,CanSWE_INA_10KA02
CanSWE-INA-10LB01,THUNDER RIVER,67.48333,-130.83333,122.0,CanSWEv6-Crown-Indigenous Relations and Northern Affairs Canada,0,0,False,3,3,0.009587114917550812,0.009587114917550812,67.58333/-130.93333/67.38333/-130.73332,67.48333/-130.83333,CanSWE_INA_10LB01
CanSWE-INA-10LB02,LITTLE CHICAGO,67.183334,-130.21666,60.0,CanSWEv6-Crown-Indigenous Relations and Northern Affairs Canada,0,0,False,3,3,0.009587114917550812,0.009587114917550812,67.28333/-130.31667/67.083336/-130.11665,67.183334/-130.21666,CanSWE_INA_10LB02
CanSWE-INA-10LB03,NININ (TROUT) LAKE,67.86667,-131.33333,150.0,CanSWEv6-Crown-Indigenous Relations and Northern Affairs Canada,0,0,False,3,3,0.009587114917550812,0.009587114917550812,67.96667/-131.43333/67.76667/-131.23332,67.86667/-131.33333,CanSWE_INA_10LB03
CanSWE-INA-10LB04,SUNNY LAKE,67.88333,-132.58333,183.0,CanSWEv6-Crown-Indigenous Relations and Northern Affairs Canada,0,0,False,3,3,0.009587114917550812,0.009587114917550812,67.98333/-132.68333/67.78333/-132.48332,67.88333/-132.58333,CanSWE_INA_10LB04
CanSWE-INA-10MC01,FORT MCPHERSON,67.38333,-134.5,30.0,CanSWEv6-Crown-Indigenous Relations and Northern Affairs Canada,0,0,False,8,8,0.0255656397801355,0.0255656397801355,67.48333/-134.6/67.28333/-134.4,67.38333/-134.5,CanSWE_INA_10MC01
CanSWE-INA-10MC02,SHILTEE TOWER,67.3,-134.95,153.0,CanSWEv6-Crown-Indigenous Relations and Northern Affairs Canada,0,0,False,3,3,0.009587114917550812,0.009587114917550812,67.4/-135.05/67.200005/-134.84999,67.3/-134.95,CanSWE_INA_10MC02
CanSWE-INA-10MC03,SATAH RIVER,67.86667,-134.2,40.0,CanSWEv6-Crown-Indigenous Relations and Northern Affairs Canada,0,0,False,3,3,0.009587114917550812,0.009587114917550812,67.96667/-134.3/67.76667/-134.09999,67.86667/-134.2,CanSWE_INA_10MC03
CanSWE-MB-04AA711,LAWFORD LAKE,54.504723,-96.6275,224.0,CanSWEv6-Manitoba Hydro,0,0,False,3,3,0.009587114917550812,0.009587114917550812,54.60472/-96.7275/54.404724/-96.527504,54.504723/-96.6275,CanSWE_MB_04AA711
CanSWE-MB-05TC701,SETTING LAKE ABOVE SASAGIU RAPIDS,55.15511,-98.46558,226.0,CanSWEv6-Manitoba Hydro,0,0,False,2,2,0.006391409945033875,0.006391409945033875,55.255108/-98.56558/55.05511/-98.365585,55.15511/-98.46558,CanSWE_MB_05TC701
CanSWE-MB-05TE703,BURNTWOOD RIVER ABOVE LEAF RAPIDS,55.483276,-99.22134,256.0,CanSWEv6-Manitoba Hydro,0,0,False,3,3,0.009587114917550812,0.009587114917550812,55.583275/-99.321335/55.383278/-99.12134,55.483276/-99.22134,CanSWE_MB_05TE703
CanSWE-MB-05TF006,WUSKWATIM LAKE NEAR THOMPSON,55.548054,-98.604164,234.0,CanSWEv6-Manitoba Hydro,0,0,False,1,1,0.0031957049725169374,0.0031957049725169374,55.648052/-98.70416/55.448055/-98.504166,55.548054/-98.604164,CanSWE_MB_05TF006
CanSWE-MB-05TF710,NOTIGI FOREBAY,55.867,-99.33161,261.0,CanSWEv6-Manitoba Hydro,0,0,False,4,4,0.01278281989006775,0.01278281989006775,55.967/-99.43161/55.767002/-99.23161,55.867/-99.33161,CanSWE_MB_05TF710
CanSWE-MB-05TG707,BURNTWOOD RIVER 0.4 KM ABOVE BIRCHTREE LAKE,55.69889,-98.049446,199.0,CanSWEv6-Manitoba Hydro,0,0,False,1,1,0.0031957049725169374,0.0031957049725169374,55.79889/-98.149445/55.598892/-97.94945,55.69889/-98.049446,CanSWE_MB_05TG707
CanSWE-MB-05TG723,BURNTWOOD RIVER ABOVE THIRD RAPIDS,55.98572,-97.20125,187.0,CanSWEv6-Manitoba Hydro,0,0,False,1,1,0.0031957049725169374,0.0031957049725169374,56.08572/-97.30125/55.885723/-97.10125,55.98572/-97.20125,CanSWE_MB_05TG723
CanSWE-MB-05TG724,BISON LAKE,55.460335,-98.42303,223.0,CanSWEv6-Manitoba Hydro,0,0,False,1,1,0.0031957049725169374,0.0031957049725169374,55.560333/-98.523026/55.360336/-98.32303,55.460335/-98.42303,CanSWE_MB_05TG724
CanSWE-MB-05TG747,BIRCH TREE LAKE,55.78,-97.944,198.0,CanSWEv6-Manitoba Hydro,0,0,False,1,1,0.0031957049725169374,0.0031957049725169374,55.879997/-98.044/55.68/-97.844,55.78/-97.944,CanSWE_MB_05TG747
CanSWE-MB-05UA003,GUNISAO RIVER AT JAM RAPIDS,53.822887,-97.77472,220.0,CanSWEv6-Manitoba Hydro,0,0,False,1,1,0.0031957049725169374,0.0031957049725169374,53.922886/-97.87472/53.72289/-97.67472,53.822887/-97.77472,CanSWE_MB_05UA003
CanSWE-MB-05UB013,KISKITTO LAKE NEAR NORWAY HOUSE,54.303223,-98.4387,215.0,CanSWEv6-Manitoba Hydro,0,0,False,5,5,0.015978524862584685,0.015978524862584685,54.40322/-98.5387/54.203224/-98.3387,54.303223/-98.4387,CanSWE_MB_05UB013
CanSWE-MB-05UB654,JENPEG SEWAGE LAGOON,54.52889,-98.04889,217.0,CanSWEv6-Manitoba Hydro,0,0,False,1,1,0.0031957049725169374,0.0031957049725169374,54.628887/-98.14889/54.42889/-97.94889,54.52889/-98.04889,CanSWE_MB_05UB654
CanSWE-MB-05UB702,NELSON RIVER ABOVE OMINAWIN BYPASS CHANNEL,54.420696,-98.06336,219.0,CanSWEv6-Manitoba Hydro,0,0,False,1,1,0.0031957049725169374,0.0031957049725169374,54.520695/-98.16336/54.320698/-97.96336,54.420696/-98.06336,CanSWE_MB_05UB702
CanSWE-MB-05UC701,MINAGO RIVER BELOW DRUNKEN LAKE,54.538944,-98.36386,210.0,CanSWEv6-Manitoba Hydro,0,0,False,1,1,0.0031957049725169374,0.0031957049725169374,54.638943/-98.46386/54.438946/-98.26386,54.538944/-98.36386,CanSWE_MB_05UC701
CanSWE-MB-05UC702,MINAGO RIVER BELOW HILL LAKE,54.500027,-98.61142,210.0,CanSWEv6-Manitoba Hydro,0,0,False,2,2,0.006391409945033875,0.006391409945033875,54.600025/-98.71142/54.40003/-98.51142,54.500027/-98.61142,CanSWE_MB_05UC702
CanSWE-MB-05UC704,HILL LAKE NEAR MINAGO RIVER INLET,54.26536,-98.96503,210.0,CanSWEv6-Manitoba Hydro,0,0,False,1,1,0.0031957049725169374,0.0031957049725169374,54.36536/-99.065025/54.165363/-98.86503,54.26536/-98.96503,CanSWE_MB_05UC704
CanSWE-MB-05UD007,SIPIWESK LAKE AT SIPIWESK LANDING,54.8875,-98.37078,189.0,CanSWEv6-Manitoba Hydro,0,0,False,1,1,0.0031957049725169374,0.0031957049725169374,54.9875/-98.47078/54.787502/-98.27078,54.8875/-98.37078,CanSWE_MB_05UD007
CanSWE-MB-05UD704,WALKER LAKE NEAR WALKER RIVER INLET,54.77111,-96.96686,209.0,CanSWEv6-Manitoba Hydro,0,0,False,2,2,0.006391409945033875,0.006391409945033875,54.87111/-97.06686/54.671112/-96.86686,54.77111/-96.96686,CanSWE_MB_05UD704
CanSWE-MB-05UE703,NELSON RIVER AT CLEARWATER RIVER,55.438057,-96.786415,188.0,CanSWEv6-Manitoba Hydro,0,0,False,3,3,0.009587114917550812,0.009587114917550812,55.538055/-96.88641/55.33806/-96.68642,55.438057/-96.786415,CanSWE_MB_05UE703
CanSWE-MB-05UE715,NELSON RIVER AT JUNCTION OF GOOSE HUNTING RIVER,55.968166,-96.562,186.0,CanSWEv6-Manitoba Hydro,0,0,False,2,2,0.006391409945033875,0.006391409945033875,56.068165/-96.661995/55.868168/-96.462,55.968166/-96.562,CanSWE_MB_05UE715
CanSWE-MB-06EC706,SOUTHERN INDIAN LAKE NEAR MISSI FALLS,57.31272,-98.16155,260.0,CanSWEv6-Manitoba Hydro,0,0,False,1,1,0.0031957049725169374,0.0031957049725169374,57.41272/-98.26155/57.212723/-98.061554,57.31272/-98.16155,CanSWE_MB_06EC706
CanSWE-MB-06EC712,MISSI FALLS FOREBAY,57.322834,-98.136475,261.0,CanSWEv6-Manitoba Hydro,0,0,False,7,7,0.02236993480761856,0.02236993480761856,57.422832/-98.23647/57.222836/-98.036476,57.322834/-98.136475,CanSWE_MB_06EC712
CanSWE-MB-06FB002,LITTLE BEAVER RIVER NEAR THE MOUTH,57.653526,-95.663666,174.0,CanSWEv6-Manitoba Hydro,0,0,False,2,2,0.006391409945033875,0.006391409945033875,57.753525/-95.763664/57.553528/-95.56367,57.653526/-95.663666,CanSWE_MB_06FB002
CanSWE-MB-06FD682,DEER RIVER NORTH OF BELCHER,58.015,-94.19556,27.0,CanSWEv6-Manitoba Hydro,0,0,False,7,7,0.02236993480761856,0.02236993480761856,58.114998/-94.295555/57.915/-94.09556,58.015/-94.19556,CanSWE_MB_06FD682
CanSWE-MB-06FD684,DEER RIVER WEST OF BACK RAILWAY SIDING,57.721943,-94.513336,112.0,CanSWEv6-Manitoba Hydro,0,0,False,1,1,0.0031957049725169374,0.0031957049725169374,57.82194/-94.613335/57.621944/-94.41334,57.721943/-94.513336,CanSWE_MB_06FD684
CanSWE-MB-06FD718,DEER RIVER NEAR MOUTH,58.387085,-94.227974,23.0,CanSWEv6-Manitoba Hydro,0,0,False,1,1,0.0031957049725169374,0.0031957049725169374,58.487083/-94.32797/58.287086/-94.127975,58.387085/-94.227974,CanSWE_MB_06FD718
CanSWE-MB-CLA,ON ICE ADJACENT TO CROSS LAKE AIRPORT,54.606945,-97.759445,208.0,CanSWEv6-Manitoba Hydro,0,0,False,4,4,0.01278281989006775,0.01278281989006775,54.706944/-97.85944/54.506947/-97.65945,54.606945/-97.759445,CanSWE_MB_CLA
CanSWE-MB-TA,THOMPSON AIRPORT,55.8,-97.861946,217.0,CanSWEv6-Manitoba Hydro,0,0,False,7,7,0.02236993480761856,0.02236993480761856,55.899998/-97.961945/55.7/-97.76195,55.8/-97.861946,CanSWE_MB_TA
CanSWE-MB-TSC,THOMPSON SERVICE CENTRE,55.707222,-97.89167,217.0,CanSWEv6-Manitoba Hydro,0,0,False,3,3,0.009587114917550812,0.009587114917550812,55.80722/-97.99167/55.607224/-97.79167,55.707222/-97.89167,CanSWE_MB_TSC
CanSWE-ONR-0101,KIOSK,46.166416,-78.916664,303.0,CanSWEv6-Ontario Ministry of Natural Resources,0,0,False,1,1,0.0031957049725169374,0.0031957049725169374,46.266415/-79.01666/46.066418/-78.816666,46.166416/-78.916664,CanSWE_ONR_0101
CanSWE-ONR-0201,COOKS MILLS,46.4,-79.4,366.0,CanSWEv6-Ontario Ministry of Natural Resources,0,0,False,33,34,0.10545826409305893,0.10865396906557585,46.5/-79.5/46.300003/-79.3,46.4/-79.4,CanSWE_ONR_0201
CanSWE-ONR-0266,LADY EVELYN LAKE,47.4664,-79.9333,307.6,CanSWEv6-Ontario Ministry of Natural Resources,0,0,False,84,84,0.26843921769142276,0.26843921769142276,47.5664/-80.033295/47.3664/-79.8333,47.4664/-79.9333,CanSWE_ONR_0266
CanSWE-ONR-0294,MATABITCHUAN,47.1331,-79.4833,250.0,CanSWEv6-Ontario Ministry of Natural Resources,0,0,False,87,87,0.2780263326089735,0.2780263326089735,47.233097/-79.5833/47.0331/-79.3833,47.1331/-79.4833,CanSWE_ONR_0294
CanSWE-ONR-0501,WILLIAMS LAK,44.4,-80.833336,335.0,CanSWEv6-Ontario Ministry of Natural Resources,0,0,False,268,273,0.8564489326345391,0.8724274574971238,44.5/-80.933334/44.300003/-80.73334,44.4/-80.833336,CanSWE_ONR_0501
CanSWE-ONR-0601,ADAMSVILLE,44.866665,-81.166664,221.0,CanSWEv6-Ontario Ministry of Natural Resources,0,0,False,6,6,0.019174229835101624,0.019174229835101624,44.966663/-81.26666/44.766666/-81.066666,44.866665/-81.166664,CanSWE_ONR_0601
CanSWE-ONR-0602,BOAT LAKE,44.733334,-81.2,190.0,CanSWEv6-Ontario Ministry of Natural Resources,0,0,False,20,20,0.06391409945033874,0.06391409945033874,44.833332/-81.299995/44.633335/-81.1,44.733334/-81.2,CanSWE_ONR_0602
CanSWE-ONR-0603,COLPOY BAY,44.8,-81.166664,213.0,CanSWEv6-Ontario Ministry of Natural Resources,0,0,False,7,7,0.02236993480761856,0.02236993480761856,44.899998/-81.26666/44.7/-81.066666,44.8/-81.166664,CanSWE_ONR_0603
CanSWE-ONR-0608,ADAMSVILLE,44.866665,-81.166664,229.0,CanSWEv6-Ontario Ministry of Natural Resources,0,0,False,8,9,0.0255656397801355,0.028761344752652435,44.966663/-81.26666/44.766666/-81.066666,44.866665/-81.166664,CanSWE_ONR_0608
CanSWE-ONR-1104,OUTLET,44.5,-76.066666,107.0,CanSWEv6-Ontario Ministry of Natural Resources,0,0,False,77,77,0.24606928288380417,0.24606928288380417,44.6/-76.166664/44.4/-75.96667,44.5/-76.066666,CanSWE_ONR_1104
CanSWE-ONR-1105,BLACK RAPIDS,44.516666,-76.1,114.0,CanSWEv6-Ontario Ministry of Natural Resources,0,0,False,72,74,0.23009075802121948,0.23648216796625338,44.616665/-76.2/44.416668/-76.0,44.516666/-76.1,CanSWE_ONR_1105
CanSWE-ONR-1201,BELFOUNTAIN,43.8,-80.01667,366.0,CanSWEv6-Ontario Ministry of Natural Resources,0,0,False,106,109,0.33874472708679537,0.34833184200434614,43.899998/-80.11667/43.7/-79.91667,43.8/-80.01667,CanSWE_ONR_1201
CanSWE-ONR-1202,MONORA,43.933334,-80.1,427.0,CanSWEv6-Ontario Ministry of Natural Resources,0,0,False,85,85,0.2716349226639397,0.2716349226639397,44.033333/-80.2/43.833336/-80.0,43.933334/-80.1,CanSWE_ONR_1202
CanSWE-ONR-1204,HILLSBURGH,43.8,-80.166664,480.0,CanSWEv6-Ontario Ministry of Natural Resources,0,0,False,27,27,0.0862840342579573,0.0862840342579573,43.899998/-80.26666/43.7/-80.066666,43.8/-80.166664,CanSWE_ONR_1204
CanSWE-ONR-1205,MEADOWVALE,43.633335,-79.73333,166.0,CanSWEv6-Ontario Ministry of Natural Resources,0,0,False,56,59,0.17895947846094848,0.1885465933784993,43.733334/-79.83333/43.533337/-79.63333,43.633335/-79.73333,CanSWE_ONR_1205
CanSWE-ONR-1207,BELFOUNTAIN2,43.8,-80.0,380.0,CanSWEv6-Ontario Ministry of Natural Resources,0,0,False,71,83,0.22689505304870256,0.2652435127189058,43.899998/-80.1/43.7/-79.9,43.8/-80.0,CanSWE_ONR_1207
CanSWE-ONR-1301,CARDIFF,44.983334,-77.96667,357.0,CanSWEv6-Ontario Ministry of Natural Resources,0,0,False,193,202,0.6167710596957688,0.6455324044484213,45.083332/-78.066666/44.883335/-77.86667,44.983334/-77.96667,CanSWE_ONR_1301
CanSWE-ONR-1302,COE HILL,44.85,-77.88333,326.0,CanSWEv6-Ontario Ministry of Natural Resources,0,0,False,191,199,0.610379649750735,0.6359452895308706,44.949997/-77.98333/44.75/-77.78333,44.85/-77.88333,CanSWE_ONR_1302
CanSWE-ONR-1303,CORDOVA,44.5,-77.8,202.0,CanSWEv6-Ontario Ministry of Natural Resources,0,0,False,171,180,0.5464655503003962,0.5752268950530487,44.6/-77.9/44.4/-77.700005,44.5/-77.8,CanSWE_ONR_1303
CanSWE-ONR-1304,MARMORA,44.516666,-77.916664,183.0,CanSWEv6-Ontario Ministry of Natural Resources,0,0,False,19,19,0.060718394477821805,0.060718394477821805,44.616665/-78.01666/44.416668/-77.816666,44.516666/-77.916664,CanSWE_ONR_1304
CanSWE-ONR-1701,FORT CREEK,46.533333,-84.35,213.0,CanSWEv6-Ontario Ministry of Natural Resources,0,0,False,23,24,0.07350121436788956,0.0766969193404065,46.63333/-84.45/46.433334/-84.25,46.533333/-84.35,CanSWE_ONR_1701
CanSWE-ONR-1702,SHERWOOD FOR,46.55,-84.35,229.0,CanSWEv6-Ontario Ministry of Natural Resources,0,0,False,17,17,0.05432698453278793,0.05432698453278793,46.649998/-84.45/46.45/-84.25,46.55/-84.35,CanSWE_ONR_1702
CanSWE-ONR-1802,WISHART PARK,46.566666,-84.28333,221.0,CanSWEv6-Ontario Ministry of Natural Resources,0,0,False,15,15,0.04793557458775406,0.04793557458775406,46.666664/-84.38333/46.466667/-84.183334,46.566666/-84.28333,CanSWE_ONR_1802
CanSWE-ONR-1901,W. CEMETARY,46.566666,-84.4,229.0,CanSWEv6-Ontario Ministry of Natural Resources,0,0,False,15,16,0.04793557458775406,0.051131279560271,46.666664/-84.5/46.466667/-84.3,46.566666/-84.4,CanSWE_ONR_1901
CanSWE-ONR-1903,E.DAVIGON CR,46.55,-84.36667,198.0,CanSWEv6-Ontario Ministry of Natural Resources,0,0,False,16,16,0.051131279560271,0.051131279560271,46.649998/-84.46667/46.45/-84.26667,46.55/-84.36667,CanSWE_ONR_1903
CanSWE-ONR-1904,BENNET CR,46.533333,-84.4,191.0,CanSWEv6-Ontario Ministry of Natural Resources,0,0,False,15,15,0.04793557458775406,0.04793557458775406,46.63333/-84.5/46.433334/-84.3,46.533333/-84.4,CanSWE_ONR_1904
CanSWE-ONR-2104,MUSSELMAN\'S,44.066666,-79.28333,335.0,CanSWEv6-Ontario Ministry of Natural Resources,0,0,False,53,55,0.16937236354339769,0.17576377348843156,44.166664/-79.38333/43.966667/-79.183334,44.066666/-79.28333,CanSWE_ONR_2104
CanSWE-ONR-2302,COLD CR,43.916668,-79.7,268.0,CanSWEv6-Ontario Ministry of Natural Resources,0,0,False,193,191,0.6167710596957688,0.610379649750735,44.016666/-79.799995/43.81667/-79.6,43.916668/-79.7,CanSWE_ONR_2302
CanSWE-ONR-2306,STOUFFVILLE,43.966667,-79.23333,268.0,CanSWEv6-Ontario Ministry of Natural Resources,0,0,False,201,198,0.6423366994759044,0.6327495845583535,44.066666/-79.33333/43.86667/-79.13333,43.966667/-79.23333,CanSWE_ONR_2306
CanSWE-ONR-2602,BRIGHTSIDE,45.116665,-76.5,183.0,CanSWEv6-Ontario Ministry of Natural Resources,0,0,False,326,327,1.0417998210405215,1.0449955260130384,45.216663/-76.6/45.016666/-76.4,45.116665/-76.5,CanSWE_ONR_2602
CanSWE-ONR-2603,HUNTLEY,45.3,-75.98333,122.0,CanSWEv6-Ontario Ministry of Natural Resources,0,0,False,86,86,0.2748306276364566,0.2748306276364566,45.399998/-76.08333/45.2/-75.88333,45.3/-75.98333,CanSWE_ONR_2603
CanSWE-ONR-2607,SNOW ROAD,44.95,-76.683334,213.0,CanSWEv6-Ontario Ministry of Natural Resources,0,0,False,103,103,0.32915761216924455,0.32915761216924455,45.05/-76.78333/44.850002/-76.583336,44.95/-76.683334,CanSWE_ONR_2607
CanSWE-ONR-2612,HERRON MILLS,45.05,-76.416664,152.0,CanSWEv6-Ontario Ministry of Natural Resources,0,0,False,7,7,0.02236993480761856,0.02236993480761856,45.149998/-76.51666/44.95/-76.316666,45.05/-76.416664,CanSWE_ONR_2612
CanSWE-ONR-2614,CLARENDON,44.866665,-76.71667,259.0,CanSWEv6-Ontario Ministry of Natural Resources,0,0,False,27,27,0.0862840342579573,0.0862840342579573,44.966663/-76.816666/44.766666/-76.61667,44.866665/-76.71667,CanSWE_ONR_2614
CanSWE-ONR-2615,CLYDESVILLE,45.05,-76.416664,152.0,CanSWEv6-Ontario Ministry of Natural Resources,0,0,False,19,19,0.060718394477821805,0.060718394477821805,45.149998/-76.51666/44.95/-76.316666,45.05/-76.416664,CanSWE_ONR_2615
CanSWE-ONR-2702,ACTINOLITE,44.55,-77.333336,167.0,CanSWEv6-Ontario Ministry of Natural Resources,0,0,False,40,42,0.12782819890067748,0.13421960884571138,44.649998/-77.433334/44.45/-77.23334,44.55/-77.333336,CanSWE_ONR_2702
CanSWE-ONR-3006,HILLSDALE,44.583332,-79.7,247.0,CanSWEv6-Ontario Ministry of Natural Resources,0,0,False,15,16,0.04793557458775406,0.051131279560271,44.68333/-79.799995/44.483334/-79.6,44.583332/-79.7,CanSWE_ONR_3006
CanSWE-ONR-3007,TINY MARSH,44.6,-79.933334,206.0,CanSWEv6-Ontario Ministry of Natural Resources,0,0,False,15,16,0.04793557458775406,0.051131279560271,44.699997/-80.03333/44.5/-79.833336,44.6/-79.933334,CanSWE_ONR_3007
CanSWE-ONR-3302,BECKETTS LDG,45.066666,-75.666664,93.0,CanSWEv6-Ontario Ministry of Natural Resources,0,0,False,7,7,0.02236993480761856,0.02236993480761856,45.166664/-75.76666/44.966667/-75.566666,45.066666/-75.666664,CanSWE_ONR_3302
CanSWE-ONR-3305,PERTH,44.883335,-76.21667,134.0,CanSWEv6-Ontario Ministry of Natural Resources,0,0,False,6,6,0.019174229835101624,0.019174229835101624,44.983334/-76.316666/44.783337/-76.11667,44.883335/-76.21667,CanSWE_ONR_3305
CanSWE-ONR-3408,CARRICK,44.05,-81.11667,381.0,CanSWEv6-Ontario Ministry of Natural Resources,0,0,False,14,14,0.04473986961523712,0.04473986961523712,44.149998/-81.21667/43.95/-81.01667,44.05/-81.11667,CanSWE_ONR_3408
CanSWE-ONR-3412,TRAVERSTON,44.3,-80.73333,396.0,CanSWEv6-Ontario Ministry of Natural Resources,0,0,False,6,6,0.019174229835101624,0.019174229835101624,44.399998/-80.83333/44.2/-80.63333,44.3/-80.73333,CanSWE_ONR_3412
CanSWE-ONR-3701,ARVA,43.066666,-81.3,279.0,CanSWEv6-Ontario Ministry of Natural Resources,0,0,False,137,145,0.43781158123482034,0.4633772210149559,43.166664/-81.4/42.966667/-81.200005,43.066666/-81.3,CanSWE_ONR_3701
CanSWE-ONR-3703,CRAMPTON,42.966667,-80.933334,280.0,CanSWEv6-Ontario Ministry of Natural Resources,0,0,False,204,208,0.6519238143934551,0.664706634283523,43.066666/-81.03333/42.86667/-80.833336,42.966667/-80.933334,CanSWE_ONR_3703
CanSWE-ONR-3707,MEDINA,43.183334,-81.05,347.0,CanSWEv6-Ontario Ministry of Natural Resources,0,0,False,206,217,0.6583152243384891,0.6934679790361753,43.283333/-81.15/43.083336/-80.950005,43.183334/-81.05,CanSWE_ONR_3707
CanSWE-ONR-3713,HYDE PARK,42.983334,-81.333336,,CanSWEv6-Ontario Ministry of Natural Resources,0,0,False,59,59,0.1885465933784993,0.1885465933784993,43.083332/-81.433334/42.883335/-81.23334,42.983334/-81.333336,CanSWE_ONR_3713
CanSWE-ONR-3714,ELGINFIELD,43.15,-81.3,,CanSWEv6-Ontario Ministry of Natural Resources,0,0,False,67,67,0.21411223315863478,0.21411223315863478,43.25/-81.4/43.050003/-81.200005,43.15/-81.3,CanSWE_ONR_3714
CanSWE-ONR-4001,MOUNT HOPE,43.133335,-79.933334,216.0,CanSWEv6-Ontario Ministry of Natural Resources,0,0,False,191,195,0.610379649750735,0.6231624696408028,43.233334/-80.03333/43.033337/-79.833336,43.133335/-79.933334,CanSWE_ONR_4001
CanSWE-ONR-4002,SOUTHCOTE,43.183334,-79.95,240.0,CanSWEv6-Ontario Ministry of Natural Resources,0,0,False,41,42,0.13102390387319443,0.13421960884571138,43.283333/-80.049995/43.083336/-79.85,43.183334/-79.95,CanSWE_ONR_4002
CanSWE-ONR-4003,WAINFLEET,42.933334,-79.45,177.0,CanSWEv6-Ontario Ministry of Natural Resources,0,0,False,69,70,0.22050364310366868,0.2236993480761856,43.033333/-79.549995/42.833336/-79.35,42.933334/-79.45,CanSWE_ONR_4003
CanSWE-ONR-4007,VIRGIL,43.2,-79.11667,96.0,CanSWEv6-Ontario Ministry of Natural Resources,0,0,False,29,31,0.09267544420299118,0.09906685414802505,43.3/-79.21667/43.100002/-79.01667,43.2/-79.11667,CanSWE_ONR_4007
CanSWE-ONR-4105,BLOOMFIELD,44.0,-77.21667,96.0,CanSWEv6-Ontario Ministry of Natural Resources,0,0,False,33,33,0.10545826409305893,0.10545826409305893,44.1/-77.316666/43.9/-77.11667,44.0/-77.21667,CanSWE_ONR_4105
CanSWE-ONR-4501,CAMPBELLCROF,44.066666,-78.35,198.0,CanSWEv6-Ontario Ministry of Natural Resources,0,0,False,67,67,0.21411223315863478,0.21411223315863478,44.166664/-78.45/43.966667/-78.25,44.066666/-78.35,CanSWE_ONR_4501
CanSWE-ONR-4801,MOUNT CARMEL,44.016666,-78.88333,273.0,CanSWEv6-Ontario Ministry of Natural Resources,0,0,False,31,32,0.09906685414802505,0.102262559120542,44.116665/-78.98333/43.916668/-78.78333,44.016666/-78.88333,CanSWE_ONR_4801
CanSWE-ONR-4901,STEPHEN\'S G1,43.95,-78.7,144.0,CanSWEv6-Ontario Ministry of Natural Resources,0,0,False,36,37,0.11504537901060974,0.11824108398312669,44.05/-78.799995/43.850002/-78.6,43.95/-78.7,CanSWE_ONR_4901
CanSWE-ONR-5201,TILLSONBURG,42.866665,-80.71667,219.0,CanSWEv6-Ontario Ministry of Natural Resources,0,0,False,109,112,0.34833184200434614,0.35791895692189696,42.966663/-80.816666/42.766666/-80.61667,42.866665/-80.71667,CanSWE_ONR_5201
CanSWE-ONR-6007,THOR LAKE,47.1,-81.26667,427.0,CanSWEv6-Ontario Ministry of Natural Resources,0,0,False,10,10,0.03195704972516937,0.03195704972516937,47.199997/-81.36667/47.0/-81.16667,47.1/-81.26667,CanSWE_ONR_6007
CanSWE-ONR-6008,GIBBONS TWP,46.55,-80.066666,256.0,CanSWEv6-Ontario Ministry of Natural Resources,0,0,False,128,130,0.409050236482168,0.4154416464272019,46.649998/-80.166664/46.45/-79.96667,46.55/-80.066666,CanSWE_ONR_6008
CanSWE-ONR-6102,BURWASH,46.266666,-80.75,241.0,CanSWEv6-Ontario Ministry of Natural Resources,0,0,False,25,24,0.07989262431292343,0.0766969193404065,46.366665/-80.85/46.166668/-80.65,46.266666/-80.75,CanSWE_ONR_6102
CanSWE-ONR-6201,GORDON CHUTE,46.483334,-81.96667,366.0,CanSWEv6-Ontario Ministry of Natural Resources,0,0,False,46,47,0.14700242873577912,0.15019813370829607,46.583332/-82.066666/46.383335/-81.86667,46.483334/-81.96667,CanSWE_ONR_6201
CanSWE-ONR-6203,RITCHIE FALL,46.766666,-82.28333,465.0,CanSWEv6-Ontario Ministry of Natural Resources,0,0,False,57,58,0.1821551834334654,0.18535088840598235,46.866665/-82.38333/46.666668/-82.183334,46.766666/-82.28333,CanSWE_ONR_6203
CanSWE-ONR-6302,HERRIDGE,46.983334,-79.8,321.0,CanSWEv6-Ontario Ministry of Natural Resources,0,0,False,12,12,0.03834845967020325,0.03834845967020325,47.083332/-79.9/46.883335/-79.700005,46.983334/-79.8,CanSWE_ONR_6302
CanSWE-ONR-6401,MCFARLANE  LAKE,46.416668,-80.95,230.0,CanSWEv6-Ontario Ministry of Natural Resources,0,0,False,97,99,0.3099833823341429,0.31637479227917675,46.516666/-81.049995/46.31667/-80.85,46.416668/-80.95,CanSWE_ONR_6401
CanSWE-ONR-6403,NIKLEDALE,46.533333,-80.98333,270.0,CanSWEv6-Ontario Ministry of Natural Resources,0,0,False,10,11,0.03195704972516937,0.035152754697686306,46.63333/-81.08333/46.433334/-80.88333,46.533333/-80.98333,CanSWE_ONR_6403
CanSWE-ONR-6404,OFFSET RD.,46.65,-81.21667,270.0,CanSWEv6-Ontario Ministry of Natural Resources,0,0,False,118,119,0.3770931867569986,0.3802888917295155,46.75/-81.316666/46.550003/-81.11667,46.65/-81.21667,CanSWE_ONR_6404
CanSWE-ONR-6406,ESTAIRE,46.3,-80.816666,250.0,CanSWEv6-Ontario Ministry of Natural Resources,0,0,False,22,23,0.07030550939537261,0.07350121436788956,46.399998/-80.916664/46.2/-80.71667,46.3/-80.816666,CanSWE_ONR_6406
CanSWE-ONR-6501,DUMP CAMP,46.65,-82.816666,320.0,CanSWEv6-Ontario Ministry of Natural Resources,0,0,False,51,51,0.1629809535983638,0.1629809535983638,46.75/-82.916664/46.550003/-82.71667,46.65/-82.816666,CanSWE_ONR_6501
CanSWE-ONR-6502,COBRA LAKE,46.766666,-83.833336,412.0,CanSWEv6-Ontario Ministry of Natural Resources,0,0,False,65,65,0.20772082321360094,0.20772082321360094,46.866665/-83.933334/46.666668/-83.73334,46.766666/-83.833336,CanSWE_ONR_6502
CanSWE-ONR-7001,EAGLE LAKE,45.116665,-78.48333,,CanSWEv6-Ontario Ministry of Natural Resources,0,0,False,137,138,0.43781158123482034,0.44100728620733737,45.216663/-78.58333/45.016666/-78.38333,45.116665/-78.48333,CanSWE_ONR_7001
CanSWE-ONR-7002,CARNARVON,45.0,-78.88333,,CanSWEv6-Ontario Ministry of Natural Resources,0,0,False,126,126,0.40265882653713403,0.40265882653713403,45.1/-78.98333/44.9/-78.78333,45.0/-78.88333,CanSWE_ONR_7002
CanSWE-ONR-7003,LITTLE BOB LAKE,44.883335,-78.78333,,CanSWEv6-Ontario Ministry of Natural Resources,0,0,False,137,137,0.43781158123482034,0.43781158123482034,44.983334/-78.88333/44.783337/-78.683334,44.883335/-78.78333,CanSWE_ONR_7003
CanSWE-ONR-7004,SIBBALD PT.,44.316666,-79.316666,225.0,CanSWEv6-Ontario Ministry of Natural Resources,0,0,False,125,126,0.3994631215646171,0.40265882653713403,44.416664/-79.416664/44.216667/-79.21667,44.316666/-79.316666,CanSWE_ONR_7004
CanSWE-ONR-7005,EMILY PARK,44.316666,-78.5,,CanSWEv6-Ontario Ministry of Natural Resources,0,0,False,124,124,0.3962674165921002,0.3962674165921002,44.416664/-78.6/44.216667/-78.4,44.316666/-78.5,CanSWE_ONR_7005
CanSWE-ONR-7006,FURNACE FALLS,44.825016,-78.563065,294.0,CanSWEv6-Ontario Ministry of Natural Resources,0,0,False,53,53,0.16937236354339769,0.16937236354339769,44.925014/-78.66306/44.725018/-78.463066,44.825016/-78.563065,CanSWE_ONR_7006
CanSWE-ONR-7007,BEAR LAKE,45.1375,-78.9336,345.0,CanSWEv6-Ontario Ministry of Natural Resources,0,0,False,7,7,0.02236993480761856,0.02236993480761856,45.2375/-79.0336/45.037502/-78.8336,45.1375/-78.9336,CanSWE_ONR_7007
CanSWE-ONR-7008,COOPER FALLS,44.77029,-79.23973,250.0,CanSWEv6-Ontario Ministry of Natural Resources,0,0,False,52,52,0.16617665857088074,0.16617665857088074,44.87029/-79.33973/44.67029/-79.13973,44.77029/-79.23973,CanSWE_ONR_7008
CanSWE-ONR-7009,BALSAM LAKE,44.6261,-78.8256,264.0,CanSWEv6-Ontario Ministry of Natural Resources,0,0,False,7,7,0.02236993480761856,0.02236993480761856,44.726097/-78.9256/44.5261/-78.7256,44.6261/-78.8256,CanSWE_ONR_7009
CanSWE-ONR-7010,GILCHRIST,44.53975,-78.08975,239.0,CanSWEv6-Ontario Ministry of Natural Resources,0,0,False,50,51,0.15978524862584687,0.1629809535983638,44.639748/-78.18975/44.43975/-77.98975,44.53975/-78.08975,CanSWE_ONR_7010
CanSWE-ONR-7011,SCANLON,44.230576,-79.400024,244.0,CanSWEv6-Ontario Ministry of Natural Resources,0,0,False,6,6,0.019174229835101624,0.019174229835101624,44.330574/-79.50002/44.130577/-79.300026,44.230576/-79.400024,CanSWE_ONR_7011
CanSWE-ONR-7012,EELS,44.878914,-78.11945,363.0,CanSWEv6-Ontario Ministry of Natural Resources,0,0,False,54,54,0.1725680685159146,0.1725680685159146,44.978912/-78.21945/44.778915/-78.019455,44.878914/-78.11945,CanSWE_ONR_7012
CanSWE-ONR-7013,STONY,44.567787,-78.15558,250.0,CanSWEv6-Ontario Ministry of Natural Resources,0,0,False,7,7,0.02236993480761856,0.02236993480761856,44.667786/-78.25558/44.46779/-78.05558,44.567787/-78.15558,CanSWE_ONR_7013
CanSWE-ONR-7014,SERPENT MOUNDS,44.208897,-78.151955,190.0,CanSWEv6-Ontario Ministry of Natural Resources,0,0,False,7,7,0.02236993480761856,0.02236993480761856,44.308895/-78.25195/44.1089/-78.051956,44.208897/-78.151955,CanSWE_ONR_7014
CanSWE-ONR-7015,LITTLE BRITAIN,44.283333,-78.86667,265.0,CanSWEv6-Ontario Ministry of Natural Resources,0,0,False,42,42,0.13421960884571138,0.13421960884571138,44.38333/-78.96667/44.183334/-78.76667,44.283333/-78.86667,CanSWE_ONR_7015
CanSWE-ONR-7016,BRADY LAKE,45.0509,-78.8189,343.0,CanSWEv6-Ontario Ministry of Natural Resources,0,0,False,12,12,0.03834845967020325,0.03834845967020325,45.150898/-78.9189/44.9509/-78.7189,45.0509/-78.8189,CanSWE_ONR_7016
CanSWE-ONR-8001,CHAFFEYS LOCK AUTO,44.578617,-76.320305,117.0,CanSWEv6-Ontario Ministry of Natural Resources,0,0,False,4,4,0.01278281989006775,0.01278281989006775,44.678616/-76.4203/44.47862/-76.22031,44.578617/-76.320305,CanSWE_ONR_8001
CanSWE-ONR-8002,BEVERIDGE,44.877506,-76.14695,134.0,CanSWEv6-Ontario Ministry of Natural Resources,0,0,False,11,11,0.035152754697686306,0.035152754697686306,44.977505/-76.24695/44.777508/-76.04695,44.877506/-76.14695,CanSWE_ONR_8002
CanSWE-ONR-8003,BEVERIDGE AUTO,44.87751,-76.14695,134.0,CanSWEv6-Ontario Ministry of Natural Resources,0,0,False,3,3,0.009587114917550812,0.009587114917550812,44.97751/-76.24695/44.77751/-76.04695,44.87751/-76.14695,CanSWE_ONR_8003
CanSWE-ONR-8005,LONG ISLAND,45.24975,-75.70335,84.0,CanSWEv6-Ontario Ministry of Natural Resources,0,0,False,11,11,0.035152754697686306,0.035152754697686306,45.349747/-75.803345/45.14975/-75.60335,45.24975/-75.70335,CanSWE_ONR_8005
CanSWE-ONR-8006,LONG ISLAND AUTO,45.249744,-75.70335,84.0,CanSWEv6-Ontario Ministry of Natural Resources,0,0,False,5,5,0.015978524862584685,0.015978524862584685,45.349743/-75.803345/45.149746/-75.60335,45.249744/-75.70335,CanSWE_ONR_8006
CanSWE-OPG-105,HEARST,49.75,-84.11667,250.0,CanSWEv6-Ontario Power Generation,0,0,False,54,54,0.1725680685159146,0.1725680685159146,49.85/-84.21667/49.65/-84.01667,49.75/-84.11667,CanSWE_OPG_105
CanSWE-OPG-14,RED LAKE,50.016666,-93.816666,380.0,CanSWEv6-Ontario Power Generation,0,0,False,46,46,0.14700242873577912,0.14700242873577912,50.116665/-93.916664/49.916668/-93.71667,50.016666/-93.816666,CanSWE_OPG_14
CanSWE-OPG-140,KAPUSKASING,49.416668,-82.45,220.0,CanSWEv6-Ontario Power Generation,0,0,False,102,102,0.3259619071967276,0.3259619071967276,49.516666/-82.549995/49.31667/-82.35,49.416668/-82.45,CanSWE_OPG_140
CanSWE-OPG-147,FOLEYET,48.233334,-82.4,325.0,CanSWEv6-Ontario Power Generation,0,0,False,159,159,0.5081170906301931,0.5081170906301931,48.333332/-82.5/48.133335/-82.3,48.233334/-82.4,CanSWE_OPG_147
CanSWE-OPG-161,ABITIBI CANYON,49.916668,-81.566666,230.0,CanSWEv6-Ontario Power Generation,0,0,False,103,103,0.32915761216924455,0.32915761216924455,50.016666/-81.666664/49.81667/-81.46667,49.916668/-81.566666,CanSWE_OPG_161
CanSWE-OPG-168,WAWAITIN,48.45,-81.03333,320.0,CanSWEv6-Ontario Power Generation,0,0,False,102,102,0.3259619071967276,0.3259619071967276,48.55/-81.13333/48.350002/-80.933334,48.45/-81.03333,CanSWE_OPG_168
CanSWE-OPG-182,HUNTA,49.1,-81.3,275.0,CanSWEv6-Ontario Power Generation,0,0,False,103,103,0.32915761216924455,0.32915761216924455,49.199997/-81.4/49.0/-81.200005,49.1/-81.3,CanSWE_OPG_182
CanSWE-OPG-189,SOUTH PORCUPINE,48.416668,-81.183334,305.0,CanSWEv6-Ontario Power Generation,0,0,False,102,102,0.3259619071967276,0.3259619071967276,48.516666/-81.28333/48.31667/-81.083336,48.416668/-81.183334,CanSWE_OPG_189
CanSWE-OPG-203,NIGHTHAWK,48.55,-80.96667,290.0,CanSWEv6-Ontario Power Generation,0,0,False,103,103,0.32915761216924455,0.32915761216924455,48.649998/-81.066666/48.45/-80.86667,48.55/-80.96667,CanSWE_OPG_203
CanSWE-OPG-210,FREDERICK HOUSE DAM,48.783333,-81.03333,275.0,CanSWEv6-Ontario Power Generation,0,0,False,101,101,0.32276620222421065,0.32276620222421065,48.88333/-81.13333/48.683334/-80.933334,48.783333/-81.03333,CanSWE_OPG_210
CanSWE-OPG-217,MOOSONEE,51.266666,-80.066666,30.0,CanSWEv6-Ontario Power Generation,0,0,False,104,104,0.3323533171417615,0.3323533171417615,51.366665/-80.166664/51.166668/-79.96667,51.266666/-80.066666,CanSWE_OPG_217
CanSWE-OPG-315,HERON LAKE,45.433334,-78.816666,365.0,CanSWEv6-Ontario Power Generation,0,0,False,84,84,0.26843921769142276,0.26843921769142276,45.533333/-78.916664/45.333336/-78.71667,45.433334/-78.816666,CanSWE_OPG_315
CanSWE-OPG-343,PRINCE\'S LAKE,45.383335,-78.1,470.0,CanSWEv6-Ontario Power Generation,0,0,False,97,97,0.3099833823341429,0.3099833823341429,45.483334/-78.2/45.283337/-78.0,45.383335/-78.1,CanSWE_OPG_343
CanSWE-OPG-371,CLOYNE,44.8,-77.183334,280.0,CanSWEv6-Ontario Power Generation,0,0,False,98,99,0.31317908730665983,0.31637479227917675,44.899998/-77.28333/44.7/-77.083336,44.8/-77.183334,CanSWE_OPG_371
CanSWE-OPG-56,CAMERON FALLS,49.133335,-88.55,240.0,CanSWEv6-Ontario Power Generation,0,0,False,54,54,0.1725680685159146,0.1725680685159146,49.233334/-88.65/49.033337/-88.450005,49.133335/-88.55,CanSWE_OPG_56
CanSWE-OPG-77,WIG LAKE,49.383335,-87.23333,399.0,CanSWEv6-Ontario Power Generation,0,0,False,58,58,0.18535088840598235,0.18535088840598235,49.483334/-87.33333/49.283337/-87.13333,49.383335/-87.23333,CanSWE_OPG_77
CanSWE-OPG-91,PAGWACHUAN,49.766666,-85.23333,215.0,CanSWEv6-Ontario Power Generation,0,0,False,58,58,0.18535088840598235,0.18535088840598235,49.866665/-85.33333/49.666668/-85.13333,49.766666/-85.23333,CanSWE_OPG_91
CanSWE-RTA-ALEX,LAC ALEX,49.3,-71.4333,278.3,CanSWEv6-Rio Tinto Alcan,0,0,False,133,133,0.42502876134475265,0.42502876134475265,49.399998/-71.533295/49.2/-71.3333,49.3/-71.4333,CanSWE_RTA_ALEX
CanSWE-RTA-BENOIT,LAC BENOIT,51.5333,-71.1167,542.0,CanSWEv6-Rio Tinto Alcan,0,0,False,124,124,0.3962674165921002,0.3962674165921002,51.633297/-71.2167/51.4333/-71.0167,51.5333/-71.1167,CanSWE_RTA_BENOIT
CanSWE-RTA-BN,BARRIERE NORD - CHEMIN CHIBOUGAMAU,49.5167,-74.1833,419.3,CanSWEv6-Rio Tinto Alcan,0,0,False,135,135,0.4314201712897865,0.4314201712897865,49.6167/-74.283295/49.416702/-74.0833,49.5167/-74.1833,CanSWE_RTA_BN
